[{"Source":"184.84.222.144","Destination":"24.6.173.220","Protocol":"TCP","TotalLength":4769916,"SourceCity":"Redwood City","DestinationCity":"Milpitas","SourceCountry":"United States","DestinationCountry":"United States","SourceLatitude":"37.4852","SourceLongitude":"-122.2364","DestinationLatitude":"37.4404","DestinationLongitude":"-121.8705"},{"Source":"96.17.110.102","Destination":"24.6.173.220","Protocol":"TCP","TotalLength":1019110,"SourceCity":"Cambridge","DestinationCity":"Milpitas","SourceCountry":"United States","DestinationCountry":"United States","SourceLatitude":"42.3626","SourceLongitude":"-71.0843","DestinationLatitude":"37.4404","DestinationLongitude":"-121.8705"},{"Source":"96.17.110.102","Destination":"24.6.173.220","Protocol":"RTMP","TotalLength":375049,"SourceCity":"Cambridge","DestinationCity":"Milpitas","SourceCountry":"United States","DestinationCountry":"United States","SourceLatitude":"42.3626","SourceLongitude":"-71.0843","DestinationLatitude":"37.4404","DestinationLongitude":"-121.8705"},{"Source":"208.93.137.180","Destination":"24.6.173.220","Protocol":"TCP","TotalLength":359298,"SourceCity":"San Jose","DestinationCity":"Milpitas","SourceCountry":"United States","DestinationCountry":"United States","SourceLatitude":"37.3394","SourceLongitude":"-121.8950","DestinationLatitude":"37.4404","DestinationLongitude":"-121.8705"},{"Source":"23.62.228.27","Destination":"24.6.173.220","Protocol":"TCP","TotalLength":253619,"SourceCity":"Cambridge","DestinationCity":"Milpitas","SourceCountry":"United States","DestinationCountry":"United States","SourceLatitude":"42.3626","SourceLongitude":"-71.0843","DestinationLatitude":"37.4404","DestinationLongitude":"-121.8705"},{"Source":"184.84.222.89","Destination":"24.6.173.220","Protocol":"TCP","TotalLength":174866,"SourceCity":"Redwood City","DestinationCity":"Milpitas","SourceCountry":"United States","DestinationCountry":"United States","SourceLatitude":"37.4852","SourceLongitude":"-122.2364","DestinationLatitude":"37.4404","DestinationLongitude":"-121.8705"},{"Source":"93.184.216.169","Destination":"24.6.173.220","Protocol":"TCP","TotalLength":145962,"SourceCity":"","DestinationCity":"Milpitas","SourceCountry":"United States","DestinationCountry":"United States","SourceLatitude":"38.0000","SourceLongitude":"-97.0000","DestinationLatitude":"37.4404","DestinationLongitude":"-121.8705"},{"Source":"184.84.222.129","Destination":"24.6.173.220","Protocol":"TCP","TotalLength":141844,"SourceCity":"Redwood City","DestinationCity":"Milpitas","SourceCountry":"United States","DestinationCountry":"United States","SourceLatitude":"37.4852","SourceLongitude":"-122.2364","DestinationLatitude":"37.4404","DestinationLongitude":"-121.8705"},{"Source":"67.192.92.227","Destination":"24.6.173.220","Protocol":"TCP","TotalLength":120612,"SourceCity":"San Antonio","DestinationCity":"Milpitas","SourceCountry":"United States","DestinationCountry":"United States","SourceLatitude":"29.4889","SourceLongitude":"-98.3987","DestinationLatitude":"37.4404","DestinationLongitude":"-121.8705"},{"Source":"207.171.163.33","Destination":"24.6.173.220","Protocol":"TCP","TotalLength":111746,"SourceCity":"Seattle","DestinationCity":"Milpitas","SourceCountry":"United States","DestinationCountry":"United States","SourceLatitude":"47.6103","SourceLongitude":"-122.3341","DestinationLatitude":"37.4404","DestinationLongitude":"-121.8705"},{"Source":"74.217.78.141","Destination":"24.6.173.220","Protocol":"TCP","TotalLength":88010,"SourceCity":"San Mateo","DestinationCity":"Milpitas","SourceCountry":"United States","DestinationCountry":"United States","SourceLatitude":"37.5402","SourceLongitude":"-122.3041","DestinationLatitude":"37.4404","DestinationLongitude":"-121.8705"},{"Source":"208.93.137.180","Destination":"24.6.173.220","Protocol":"HTTP","TotalLength":76124,"SourceCity":"San Jose","DestinationCity":"Milpitas","SourceCountry":"United States","DestinationCountry":"United States","SourceLatitude":"37.3394","SourceLongitude":"-121.8950","DestinationLatitude":"37.4404","DestinationLongitude":"-121.8705"},{"Source":"24.6.173.220","Destination":"184.84.222.144","Protocol":"TCP","TotalLength":70914,"SourceCity":"Milpitas","DestinationCity":"Redwood City","SourceCountry":"United States","DestinationCountry":"United States","SourceLatitude":"37.4404","SourceLongitude":"-121.8705","DestinationLatitude":"37.4852","DestinationLongitude":"-122.2364"},{"Source":"93.184.216.229","Destination":"24.6.173.220","Protocol":"TCP","TotalLength":68622,"SourceCity":"","DestinationCity":"Milpitas","SourceCountry":"United States","DestinationCountry":"United States","SourceLatitude":"38.0000","SourceLongitude":"-97.0000","DestinationLatitude":"37.4404","DestinationLongitude":"-121.8705"},{"Source":"24.6.173.220","Destination":"208.93.137.180","Protocol":"HTTP","TotalLength":49132,"SourceCity":"Milpitas","DestinationCity":"San Jose","SourceCountry":"United States","DestinationCountry":"United States","SourceLatitude":"37.4404","SourceLongitude":"-121.8705","DestinationLatitude":"37.3394","DestinationLongitude":"-121.8950"},{"Source":"75.75.75.75","Destination":"24.6.173.220","Protocol":"DNS","TotalLength":45248,"SourceCity":"","DestinationCity":"Milpitas","SourceCountry":"United States","DestinationCountry":"United States","SourceLatitude":"38.0000","SourceLongitude":"-97.0000","DestinationLatitude":"37.4404","DestinationLongitude":"-121.8705"},{"Source":"23.23.254.40","Destination":"24.6.173.220","Protocol":"TCP","TotalLength":42830,"SourceCity":"Ashburn","DestinationCity":"Milpitas","SourceCountry":"United States","DestinationCountry":"United States","SourceLatitude":"39.0437","SourceLongitude":"-77.4875","DestinationLatitude":"37.4404","DestinationLongitude":"-121.8705"},{"Source":"23.62.228.24","Destination":"24.6.173.220","Protocol":"TCP","TotalLength":36714,"SourceCity":"Cambridge","DestinationCity":"Milpitas","SourceCountry":"United States","DestinationCountry":"United States","SourceLatitude":"42.3626","SourceLongitude":"-71.0843","DestinationLatitude":"37.4404","DestinationLongitude":"-121.8705"},{"Source":"207.171.187.118","Destination":"24.6.173.220","Protocol":"TCP","TotalLength":30532,"SourceCity":"Seattle","DestinationCity":"Milpitas","SourceCountry":"United States","DestinationCountry":"United States","SourceLatitude":"47.6103","SourceLongitude":"-122.3341","DestinationLatitude":"37.4404","DestinationLongitude":"-121.8705"},{"Source":"207.171.185.200","Destination":"24.6.173.220","Protocol":"TCP","TotalLength":30062,"SourceCity":"Seattle","DestinationCity":"Milpitas","SourceCountry":"United States","DestinationCountry":"United States","SourceLatitude":"47.6103","SourceLongitude":"-122.3341","DestinationLatitude":"37.4404","DestinationLongitude":"-121.8705"},{"Source":"54.243.35.94","Destination":"24.6.173.220","Protocol":"TCP","TotalLength":29568,"SourceCity":"Ashburn","DestinationCity":"Milpitas","SourceCountry":"United States","DestinationCountry":"United States","SourceLatitude":"39.0437","SourceLongitude":"-77.4875","DestinationLatitude":"37.4404","DestinationLongitude":"-121.8705"},{"Source":"208.81.191.110","Destination":"24.6.173.220","Protocol":"TCP","TotalLength":24890,"SourceCity":"Mountain View","DestinationCity":"Milpitas","SourceCountry":"United States","DestinationCountry":"United States","SourceLatitude":"37.3885","SourceLongitude":"-122.0741","DestinationLatitude":"37.4404","DestinationLongitude":"-121.8705"},{"Source":"24.6.173.220","Destination":"67.192.92.227","Protocol":"HTTP","TotalLength":23607,"SourceCity":"Milpitas","DestinationCity":"San Antonio","SourceCountry":"United States","DestinationCountry":"United States","SourceLatitude":"37.4404","SourceLongitude":"-121.8705","DestinationLatitude":"29.4889","DestinationLongitude":"-98.3987"},{"Source":"66.109.241.50","Destination":"24.6.173.220","Protocol":"TCP","TotalLength":23508,"SourceCity":"","DestinationCity":"Milpitas","SourceCountry":"United States","DestinationCountry":"United States","SourceLatitude":"38.0000","SourceLongitude":"-97.0000","DestinationLatitude":"37.4404","DestinationLongitude":"-121.8705"},{"Source":"54.243.35.94","Destination":"24.6.173.220","Protocol":"HTTP","TotalLength":21299,"SourceCity":"Ashburn","DestinationCity":"Milpitas","SourceCountry":"United States","DestinationCountry":"United States","SourceLatitude":"39.0437","SourceLongitude":"-77.4875","DestinationLatitude":"37.4404","DestinationLongitude":"-121.8705"},{"Source":"24.6.173.220","Destination":"75.75.75.75","Protocol":"DNS","TotalLength":21132,"SourceCity":"Milpitas","DestinationCity":"","SourceCountry":"United States","DestinationCountry":"United States","SourceLatitude":"37.4404","SourceLongitude":"-121.8705","DestinationLatitude":"38.0000","DestinationLongitude":"-97.0000"},{"Source":"23.7.192.143","Destination":"24.6.173.220","Protocol":"TCP","TotalLength":20815,"SourceCity":"Cambridge","DestinationCity":"Milpitas","SourceCountry":"United States","DestinationCountry":"United States","SourceLatitude":"42.3626","SourceLongitude":"-71.0843","DestinationLatitude":"37.4404","DestinationLongitude":"-121.8705"},{"Source":"24.6.173.220","Destination":"96.17.110.102","Protocol":"TCP","TotalLength":20586,"SourceCity":"Milpitas","DestinationCity":"Cambridge","SourceCountry":"United States","DestinationCountry":"United States","SourceLatitude":"37.4404","SourceLongitude":"-121.8705","DestinationLatitude":"42.3626","DestinationLongitude":"-71.0843"},{"Source":"23.62.228.33","Destination":"24.6.173.220","Protocol":"HTTP","TotalLength":19773,"SourceCity":"Cambridge","DestinationCity":"Milpitas","SourceCountry":"United States","DestinationCountry":"United States","SourceLatitude":"42.3626","SourceLongitude":"-71.0843","DestinationLatitude":"37.4404","DestinationLongitude":"-121.8705"},{"Source":"63.215.202.49","Destination":"24.6.173.220","Protocol":"TCP","TotalLength":17134,"SourceCity":"Amsterdam","DestinationCity":"Milpitas","SourceCountry":"Netherlands","DestinationCountry":"United States","SourceLatitude":"52.3500","SourceLongitude":"4.9167","DestinationLatitude":"37.4404","DestinationLongitude":"-121.8705"},{"Source":"24.6.173.220","Destination":"208.93.137.180","Protocol":"TCP","TotalLength":16512,"SourceCity":"Milpitas","DestinationCity":"San Jose","SourceCountry":"United States","DestinationCountry":"United States","SourceLatitude":"37.4404","SourceLongitude":"-121.8705","DestinationLatitude":"37.3394","DestinationLongitude":"-121.8950"},{"Source":"184.84.222.89","Destination":"24.6.173.220","Protocol":"HTTP","TotalLength":14516,"SourceCity":"Redwood City","DestinationCity":"Milpitas","SourceCountry":"United States","DestinationCountry":"United States","SourceLatitude":"37.4852","SourceLongitude":"-122.2364","DestinationLatitude":"37.4404","DestinationLongitude":"-121.8705"},{"Source":"24.6.173.220","Destination":"74.217.78.141","Protocol":"HTTP","TotalLength":13124,"SourceCity":"Milpitas","DestinationCity":"San Mateo","SourceCountry":"United States","DestinationCountry":"United States","SourceLatitude":"37.4404","SourceLongitude":"-121.8705","DestinationLatitude":"37.5402","DestinationLongitude":"-122.3041"},{"Source":"107.6.91.102","Destination":"24.6.173.220","Protocol":"TCP","TotalLength":12938,"SourceCity":"Santa Clara","DestinationCity":"Milpitas","SourceCountry":"United States","DestinationCountry":"United States","SourceLatitude":"37.3961","SourceLongitude":"-121.9617","DestinationLatitude":"37.4404","DestinationLongitude":"-121.8705"},{"Source":"24.6.173.220","Destination":"107.6.91.102","Protocol":"HTTP","TotalLength":12878,"SourceCity":"Milpitas","DestinationCity":"Santa Clara","SourceCountry":"United States","DestinationCountry":"United States","SourceLatitude":"37.4404","SourceLongitude":"-121.8705","DestinationLatitude":"37.3961","DestinationLongitude":"-121.9617"},{"Source":"205.251.215.159","Destination":"24.6.173.220","Protocol":"TCP","TotalLength":12364,"SourceCity":"Seattle","DestinationCity":"Milpitas","SourceCountry":"United States","DestinationCountry":"United States","SourceLatitude":"47.6103","SourceLongitude":"-122.3341","DestinationLatitude":"37.4404","DestinationLongitude":"-121.8705"},{"Source":"184.86.112.74","Destination":"24.6.173.220","Protocol":"HTTP","TotalLength":11980,"SourceCity":"Cambridge","DestinationCity":"Milpitas","SourceCountry":"United States","DestinationCountry":"United States","SourceLatitude":"42.3626","SourceLongitude":"-71.0843","DestinationLatitude":"37.4404","DestinationLongitude":"-121.8705"},{"Source":"24.6.173.220","Destination":"184.86.112.74","Protocol":"HTTP","TotalLength":11773,"SourceCity":"Milpitas","DestinationCity":"Cambridge","SourceCountry":"United States","DestinationCountry":"United States","SourceLatitude":"37.4404","SourceLongitude":"-121.8705","DestinationLatitude":"42.3626","DestinationLongitude":"-71.0843"},{"Source":"216.155.207.26","Destination":"24.6.173.220","Protocol":"TCP","TotalLength":9564,"SourceCity":"Sunnyvale","DestinationCity":"Milpitas","SourceCountry":"United States","DestinationCountry":"United States","SourceLatitude":"37.4249","SourceLongitude":"-122.0074","DestinationLatitude":"37.4404","DestinationLongitude":"-121.8705"},{"Source":"74.217.78.141","Destination":"24.6.173.220","Protocol":"HTTP/XML","TotalLength":9192,"SourceCity":"San Mateo","DestinationCity":"Milpitas","SourceCountry":"United States","DestinationCountry":"United States","SourceLatitude":"37.5402","SourceLongitude":"-122.3041","DestinationLatitude":"37.4404","DestinationLongitude":"-121.8705"},{"Source":"24.6.173.220","Destination":"184.84.222.136","Protocol":"HTTP","TotalLength":9151,"SourceCity":"Milpitas","DestinationCity":"Redwood City","SourceCountry":"United States","DestinationCountry":"United States","SourceLatitude":"37.4404","SourceLongitude":"-121.8705","DestinationLatitude":"37.4852","DestinationLongitude":"-122.2364"},{"Source":"199.7.57.72","Destination":"24.6.173.220","Protocol":"TCP","TotalLength":8980,"SourceCity":"Reston","DestinationCity":"Milpitas","SourceCountry":"United States","DestinationCountry":"United States","SourceLatitude":"38.9599","SourceLongitude":"-77.3428","DestinationLatitude":"37.4404","DestinationLongitude":"-121.8705"},{"Source":"24.6.173.220","Destination":"184.84.222.89","Protocol":"HTTP","TotalLength":8425,"SourceCity":"Milpitas","DestinationCity":"Redwood City","SourceCountry":"United States","DestinationCountry":"United States","SourceLatitude":"37.4404","SourceLongitude":"-121.8705","DestinationLatitude":"37.4852","DestinationLongitude":"-122.2364"},{"Source":"208.48.131.3","Destination":"24.6.173.220","Protocol":"HTTP","TotalLength":8347,"SourceCity":"","DestinationCity":"Milpitas","SourceCountry":"United States","DestinationCountry":"United States","SourceLatitude":"38.0000","SourceLongitude":"-97.0000","DestinationLatitude":"37.4404","DestinationLongitude":"-121.8705"},{"Source":"24.6.173.220","Destination":"54.243.35.94","Protocol":"HTTP","TotalLength":7888,"SourceCity":"Milpitas","DestinationCity":"Ashburn","SourceCountry":"United States","DestinationCountry":"United States","SourceLatitude":"37.4404","SourceLongitude":"-121.8705","DestinationLatitude":"39.0437","DestinationLongitude":"-77.4875"},{"Source":"24.6.173.220","Destination":"23.62.228.33","Protocol":"HTTP","TotalLength":7862,"SourceCity":"Milpitas","DestinationCity":"Cambridge","SourceCountry":"United States","DestinationCountry":"United States","SourceLatitude":"37.4404","SourceLongitude":"-121.8705","DestinationLatitude":"42.3626","DestinationLongitude":"-71.0843"},{"Source":"24.6.173.220","Destination":"66.235.138.18","Protocol":"HTTP","TotalLength":7782,"SourceCity":"Milpitas","DestinationCity":"Lehi","SourceCountry":"United States","DestinationCountry":"United States","SourceLatitude":"37.4404","SourceLongitude":"-121.8705","DestinationLatitude":"40.3245","DestinationLongitude":"-111.9618"},{"Source":"24.6.173.220","Destination":"208.81.191.113","Protocol":"HTTP","TotalLength":7711,"SourceCity":"Milpitas","DestinationCity":"Mountain View","SourceCountry":"United States","DestinationCountry":"United States","SourceLatitude":"37.4404","SourceLongitude":"-121.8705","DestinationLatitude":"37.3885","DestinationLongitude":"-122.0741"},{"Source":"24.6.173.220","Destination":"96.17.148.18","Protocol":"HTTP","TotalLength":7689,"SourceCity":"Milpitas","DestinationCity":"Cambridge","SourceCountry":"United States","DestinationCountry":"United States","SourceLatitude":"37.4404","SourceLongitude":"-121.8705","DestinationLatitude":"42.3626","DestinationLongitude":"-71.0843"},{"Source":"50.112.143.144","Destination":"24.6.173.220","Protocol":"HTTP","TotalLength":6870,"SourceCity":"Boardman","DestinationCity":"Milpitas","SourceCountry":"United States","DestinationCountry":"United States","SourceLatitude":"45.7788","SourceLongitude":"-119.5290","DestinationLatitude":"37.4404","DestinationLongitude":"-121.8705"},{"Source":"208.81.191.110","Destination":"24.6.173.220","Protocol":"TLSv1","TotalLength":6643,"SourceCity":"Mountain View","DestinationCity":"Milpitas","SourceCountry":"United States","DestinationCountry":"United States","SourceLatitude":"37.3885","SourceLongitude":"-122.0741","DestinationLatitude":"37.4404","DestinationLongitude":"-121.8705"},{"Source":"184.73.197.77","Destination":"24.6.173.220","Protocol":"TCP","TotalLength":6554,"SourceCity":"Ashburn","DestinationCity":"Milpitas","SourceCountry":"United States","DestinationCountry":"United States","SourceLatitude":"39.0437","SourceLongitude":"-77.4875","DestinationLatitude":"37.4404","DestinationLongitude":"-121.8705"},{"Source":"24.6.173.220","Destination":"66.150.149.24","Protocol":"HTTP","TotalLength":6481,"SourceCity":"Milpitas","DestinationCity":"Atlanta","SourceCountry":"United States","DestinationCountry":"United States","SourceLatitude":"37.4404","SourceLongitude":"-121.8705","DestinationLatitude":"33.7516","DestinationLongitude":"-84.3915"},{"Source":"184.85.100.46","Destination":"24.6.173.220","Protocol":"TCP","TotalLength":6308,"SourceCity":"Cambridge","DestinationCity":"Milpitas","SourceCountry":"United States","DestinationCountry":"United States","SourceLatitude":"42.3626","SourceLongitude":"-71.0843","DestinationLatitude":"37.4404","DestinationLongitude":"-121.8705"},{"Source":"24.6.173.220","Destination":"50.23.124.152","Protocol":"HTTP","TotalLength":6297,"SourceCity":"Milpitas","DestinationCity":"San Jose","SourceCountry":"United States","DestinationCountry":"United States","SourceLatitude":"37.4404","SourceLongitude":"-121.8705","DestinationLatitude":"37.3394","DestinationLongitude":"-121.8950"},{"Source":"24.6.173.220","Destination":"208.48.131.3","Protocol":"HTTP","TotalLength":6172,"SourceCity":"Milpitas","DestinationCity":"","SourceCountry":"United States","DestinationCountry":"United States","SourceLatitude":"37.4404","SourceLongitude":"-121.8705","DestinationLatitude":"38.0000","DestinationLongitude":"-97.0000"},{"Source":"96.17.148.18","Destination":"24.6.173.220","Protocol":"HTTP","TotalLength":6106,"SourceCity":"Cambridge","DestinationCity":"Milpitas","SourceCountry":"United States","DestinationCountry":"United States","SourceLatitude":"42.3626","SourceLongitude":"-71.0843","DestinationLatitude":"37.4404","DestinationLongitude":"-121.8705"},{"Source":"24.6.173.220","Destination":"23.62.228.27","Protocol":"HTTP","TotalLength":5777,"SourceCity":"Milpitas","DestinationCity":"Cambridge","SourceCountry":"United States","DestinationCountry":"United States","SourceLatitude":"37.4404","SourceLongitude":"-121.8705","DestinationLatitude":"42.3626","DestinationLongitude":"-71.0843"},{"Source":"24.6.173.220","Destination":"67.192.92.227","Protocol":"TCP","TotalLength":5742,"SourceCity":"Milpitas","DestinationCity":"San Antonio","SourceCountry":"United States","DestinationCountry":"United States","SourceLatitude":"37.4404","SourceLongitude":"-121.8705","DestinationLatitude":"29.4889","DestinationLongitude":"-98.3987"},{"Source":"66.150.149.24","Destination":"24.6.173.220","Protocol":"HTTP","TotalLength":5700,"SourceCity":"Atlanta","DestinationCity":"Milpitas","SourceCountry":"United States","DestinationCountry":"United States","SourceLatitude":"33.7516","SourceLongitude":"-84.3915","DestinationLatitude":"37.4404","DestinationLongitude":"-121.8705"},{"Source":"216.34.207.133","Destination":"24.6.173.220","Protocol":"TCP","TotalLength":5382,"SourceCity":"Santa Barbara","DestinationCity":"Milpitas","SourceCountry":"United States","DestinationCountry":"United States","SourceLatitude":"34.4208","SourceLongitude":"-119.6982","DestinationLatitude":"37.4404","DestinationLongitude":"-121.8705"},{"Source":"68.142.253.12","Destination":"24.6.173.220","Protocol":"TCP","TotalLength":5226,"SourceCity":"Sunnyvale","DestinationCity":"Milpitas","SourceCountry":"United States","DestinationCountry":"United States","SourceLatitude":"37.4249","SourceLongitude":"-122.0074","DestinationLatitude":"37.4404","DestinationLongitude":"-121.8705"},{"Source":"24.6.173.220","Destination":"208.81.191.110","Protocol":"HTTP","TotalLength":5040,"SourceCity":"Milpitas","DestinationCity":"Mountain View","SourceCountry":"United States","DestinationCountry":"United States","SourceLatitude":"37.4404","SourceLongitude":"-121.8705","DestinationLatitude":"37.3885","DestinationLongitude":"-122.0741"},{"Source":"50.23.124.152","Destination":"24.6.173.220","Protocol":"TCP","TotalLength":5022,"SourceCity":"San Jose","DestinationCity":"Milpitas","SourceCountry":"United States","DestinationCountry":"United States","SourceLatitude":"37.3394","SourceLongitude":"-121.8950","DestinationLatitude":"37.4404","DestinationLongitude":"-121.8705"},{"Source":"207.171.163.33","Destination":"24.6.173.220","Protocol":"HTTP","TotalLength":4995,"SourceCity":"Seattle","DestinationCity":"Milpitas","SourceCountry":"United States","DestinationCountry":"United States","SourceLatitude":"47.6103","SourceLongitude":"-122.3341","DestinationLatitude":"37.4404","DestinationLongitude":"-121.8705"},{"Source":"69.16.175.10","Destination":"24.6.173.220","Protocol":"TCP","TotalLength":4914,"SourceCity":"Phoenix","DestinationCity":"Milpitas","SourceCountry":"United States","DestinationCountry":"United States","SourceLatitude":"33.5083","SourceLongitude":"-112.0717","DestinationLatitude":"37.4404","DestinationLongitude":"-121.8705"},{"Source":"75.101.165.44","Destination":"24.6.173.220","Protocol":"TCP","TotalLength":4914,"SourceCity":"Ashburn","DestinationCity":"Milpitas","SourceCountry":"United States","DestinationCountry":"United States","SourceLatitude":"39.0437","SourceLongitude":"-77.4875","DestinationLatitude":"37.4404","DestinationLongitude":"-121.8705"},{"Source":"66.150.149.23","Destination":"24.6.173.220","Protocol":"TCP","TotalLength":4914,"SourceCity":"Atlanta","DestinationCity":"Milpitas","SourceCountry":"United States","DestinationCountry":"United States","SourceLatitude":"33.7516","SourceLongitude":"-84.3915","DestinationLatitude":"37.4404","DestinationLongitude":"-121.8705"},{"Source":"67.192.92.227","Destination":"24.6.173.220","Protocol":"HTTP/XML","TotalLength":4862,"SourceCity":"San Antonio","DestinationCity":"Milpitas","SourceCountry":"United States","DestinationCountry":"United States","SourceLatitude":"29.4889","SourceLongitude":"-98.3987","DestinationLatitude":"37.4404","DestinationLongitude":"-121.8705"},{"Source":"24.6.173.220","Destination":"74.217.78.158","Protocol":"HTTP","TotalLength":4744,"SourceCity":"Milpitas","DestinationCity":"San Mateo","SourceCountry":"United States","DestinationCountry":"United States","SourceLatitude":"37.4404","SourceLongitude":"-121.8705","DestinationLatitude":"37.5402","DestinationLongitude":"-122.3041"},{"Source":"184.84.222.136","Destination":"24.6.173.220","Protocol":"HTTP","TotalLength":4584,"SourceCity":"Redwood City","DestinationCity":"Milpitas","SourceCountry":"United States","DestinationCountry":"United States","SourceLatitude":"37.4852","SourceLongitude":"-122.2364","DestinationLatitude":"37.4404","DestinationLongitude":"-121.8705"},{"Source":"24.6.173.220","Destination":"207.171.185.200","Protocol":"TLSv1","TotalLength":4353,"SourceCity":"Milpitas","DestinationCity":"Seattle","SourceCountry":"United States","DestinationCountry":"United States","SourceLatitude":"37.4404","SourceLongitude":"-121.8705","DestinationLatitude":"47.6103","DestinationLongitude":"-122.3341"},{"Source":"50.18.191.55","Destination":"24.6.173.220","Protocol":"HTTP","TotalLength":4342,"SourceCity":"San Jose","DestinationCity":"Milpitas","SourceCountry":"United States","DestinationCountry":"United States","SourceLatitude":"37.3394","SourceLongitude":"-121.8950","DestinationLatitude":"37.4404","DestinationLongitude":"-121.8705"},{"Source":"24.6.173.220","Destination":"50.112.143.144","Protocol":"HTTP","TotalLength":4200,"SourceCity":"Milpitas","DestinationCity":"Boardman","SourceCountry":"United States","DestinationCountry":"United States","SourceLatitude":"37.4404","SourceLongitude":"-121.8705","DestinationLatitude":"45.7788","DestinationLongitude":"-119.5290"},{"Source":"208.71.123.129","Destination":"24.6.173.220","Protocol":"HTTP/XML","TotalLength":4195,"SourceCity":"New York","DestinationCity":"Milpitas","SourceCountry":"United States","DestinationCountry":"United States","SourceLatitude":"40.7517","SourceLongitude":"-73.9972","DestinationLatitude":"37.4404","DestinationLongitude":"-121.8705"},{"Source":"24.6.173.220","Destination":"96.17.110.102","Protocol":"RTMP","TotalLength":4177,"SourceCity":"Milpitas","DestinationCity":"Cambridge","SourceCountry":"United States","DestinationCountry":"United States","SourceLatitude":"37.4404","SourceLongitude":"-121.8705","DestinationLatitude":"42.3626","DestinationLongitude":"-71.0843"},{"Source":"24.6.173.220","Destination":"216.34.207.133","Protocol":"HTTP","TotalLength":4017,"SourceCity":"Milpitas","DestinationCity":"Santa Barbara","SourceCountry":"United States","DestinationCountry":"United States","SourceLatitude":"37.4404","SourceLongitude":"-121.8705","DestinationLatitude":"34.4208","DestinationLongitude":"-119.6982"},{"Source":"23.62.228.27","Destination":"24.6.173.220","Protocol":"HTTP","TotalLength":3810,"SourceCity":"Cambridge","DestinationCity":"Milpitas","SourceCountry":"United States","DestinationCountry":"United States","SourceLatitude":"42.3626","SourceLongitude":"-71.0843","DestinationLatitude":"37.4404","DestinationLongitude":"-121.8705"},{"Source":"24.6.173.220","Destination":"23.62.228.27","Protocol":"TCP","TotalLength":3684,"SourceCity":"Milpitas","DestinationCity":"Cambridge","SourceCountry":"United States","DestinationCountry":"United States","SourceLatitude":"37.4404","SourceLongitude":"-121.8705","DestinationLatitude":"42.3626","DestinationLongitude":"-71.0843"},{"Source":"184.86.112.74","Destination":"24.6.173.220","Protocol":"TCP","TotalLength":3599,"SourceCity":"Cambridge","DestinationCity":"Milpitas","SourceCountry":"United States","DestinationCountry":"United States","SourceLatitude":"42.3626","SourceLongitude":"-71.0843","DestinationLatitude":"37.4404","DestinationLongitude":"-121.8705"},{"Source":"107.6.91.102","Destination":"24.6.173.220","Protocol":"HTTP","TotalLength":3598,"SourceCity":"Santa Clara","DestinationCity":"Milpitas","SourceCountry":"United States","DestinationCountry":"United States","SourceLatitude":"37.3961","SourceLongitude":"-121.9617","DestinationLatitude":"37.4404","DestinationLongitude":"-121.8705"},{"Source":"208.48.131.5","Destination":"24.6.173.220","Protocol":"TCP","TotalLength":3594,"SourceCity":"","DestinationCity":"Milpitas","SourceCountry":"United States","DestinationCountry":"United States","SourceLatitude":"38.0000","SourceLongitude":"-97.0000","DestinationLatitude":"37.4404","DestinationLongitude":"-121.8705"},{"Source":"24.6.173.220","Destination":"216.155.207.26","Protocol":"HTTP","TotalLength":3566,"SourceCity":"Milpitas","DestinationCity":"Sunnyvale","SourceCountry":"United States","DestinationCountry":"United States","SourceLatitude":"37.4404","SourceLongitude":"-121.8705","DestinationLatitude":"37.4249","DestinationLongitude":"-122.0074"},{"Source":"24.6.173.220","Destination":"54.243.35.94","Protocol":"TCP","TotalLength":3552,"SourceCity":"Milpitas","DestinationCity":"Ashburn","SourceCountry":"United States","DestinationCountry":"United States","SourceLatitude":"37.4404","SourceLongitude":"-121.8705","DestinationLatitude":"39.0437","DestinationLongitude":"-77.4875"},{"Source":"67.192.92.227","Destination":"24.6.173.220","Protocol":"HTTP","TotalLength":3528,"SourceCity":"San Antonio","DestinationCity":"Milpitas","SourceCountry":"United States","DestinationCountry":"United States","SourceLatitude":"29.4889","SourceLongitude":"-98.3987","DestinationLatitude":"37.4404","DestinationLongitude":"-121.8705"},{"Source":"208.81.191.108","Destination":"24.6.173.220","Protocol":"TCP","TotalLength":3488,"SourceCity":"Mountain View","DestinationCity":"Milpitas","SourceCountry":"United States","DestinationCountry":"United States","SourceLatitude":"37.3885","SourceLongitude":"-122.0741","DestinationLatitude":"37.4404","DestinationLongitude":"-121.8705"},{"Source":"24.6.173.220","Destination":"23.7.192.143","Protocol":"HTTP","TotalLength":3429,"SourceCity":"Milpitas","DestinationCity":"Cambridge","SourceCountry":"United States","DestinationCountry":"United States","SourceLatitude":"37.4404","SourceLongitude":"-121.8705","DestinationLatitude":"42.3626","DestinationLongitude":"-71.0843"},{"Source":"23.62.228.24","Destination":"24.6.173.220","Protocol":"HTTP","TotalLength":3426,"SourceCity":"Cambridge","DestinationCity":"Milpitas","SourceCountry":"United States","DestinationCountry":"United States","SourceLatitude":"42.3626","SourceLongitude":"-71.0843","DestinationLatitude":"37.4404","DestinationLongitude":"-121.8705"},{"Source":"24.6.173.220","Destination":"199.233.57.41","Protocol":"HTTP","TotalLength":3418,"SourceCity":"Milpitas","DestinationCity":"","SourceCountry":"United States","DestinationCountry":"United States","SourceLatitude":"37.4404","SourceLongitude":"-121.8705","DestinationLatitude":"38.0000","DestinationLongitude":"-97.0000"},{"Source":"24.6.173.220","Destination":"63.215.202.49","Protocol":"HTTP","TotalLength":3319,"SourceCity":"Milpitas","DestinationCity":"Amsterdam","SourceCountry":"United States","DestinationCountry":"Netherlands","SourceLatitude":"37.4404","SourceLongitude":"-121.8705","DestinationLatitude":"52.3500","DestinationLongitude":"4.9167"},{"Source":"24.6.173.220","Destination":"184.84.222.89","Protocol":"TCP","TotalLength":3312,"SourceCity":"Milpitas","DestinationCity":"Redwood City","SourceCountry":"United States","DestinationCountry":"United States","SourceLatitude":"37.4404","SourceLongitude":"-121.8705","DestinationLatitude":"37.4852","DestinationLongitude":"-122.2364"},{"Source":"24.6.173.220","Destination":"208.71.123.129","Protocol":"HTTP","TotalLength":3289,"SourceCity":"Milpitas","DestinationCity":"New York","SourceCountry":"United States","DestinationCountry":"United States","SourceLatitude":"37.4404","SourceLongitude":"-121.8705","DestinationLatitude":"40.7517","DestinationLongitude":"-73.9972"},{"Source":"24.6.173.220","Destination":"23.62.228.24","Protocol":"HTTP","TotalLength":3224,"SourceCity":"Milpitas","DestinationCity":"Cambridge","SourceCountry":"United States","DestinationCountry":"United States","SourceLatitude":"37.4404","SourceLongitude":"-121.8705","DestinationLatitude":"42.3626","DestinationLongitude":"-71.0843"},{"Source":"24.6.173.220","Destination":"208.81.191.110","Protocol":"TCP","TotalLength":3144,"SourceCity":"Milpitas","DestinationCity":"Mountain View","SourceCountry":"United States","DestinationCountry":"United States","SourceLatitude":"37.4404","SourceLongitude":"-121.8705","DestinationLatitude":"37.3885","DestinationLongitude":"-122.0741"},{"Source":"93.184.216.169","Destination":"24.6.173.220","Protocol":"HTTP","TotalLength":3135,"SourceCity":"","DestinationCity":"Milpitas","SourceCountry":"United States","DestinationCountry":"United States","SourceLatitude":"38.0000","SourceLongitude":"-97.0000","DestinationLatitude":"37.4404","DestinationLongitude":"-121.8705"},{"Source":"63.215.202.48","Destination":"24.6.173.220","Protocol":"HTTP","TotalLength":3116,"SourceCity":"Amsterdam","DestinationCity":"Milpitas","SourceCountry":"Netherlands","DestinationCountry":"United States","SourceLatitude":"52.3500","SourceLongitude":"4.9167","DestinationLatitude":"37.4404","DestinationLongitude":"-121.8705"},{"Source":"24.6.173.220","Destination":"93.184.216.169","Protocol":"HTTP","TotalLength":3007,"SourceCity":"Milpitas","DestinationCity":"","SourceCountry":"United States","DestinationCountry":"United States","SourceLatitude":"37.4404","SourceLongitude":"-121.8705","DestinationLatitude":"38.0000","DestinationLongitude":"-97.0000"},{"Source":"50.23.124.152","Destination":"24.6.173.220","Protocol":"HTTP","TotalLength":2955,"SourceCity":"San Jose","DestinationCity":"Milpitas","SourceCountry":"United States","DestinationCountry":"United States","SourceLatitude":"37.3394","SourceLongitude":"-121.8950","DestinationLatitude":"37.4404","DestinationLongitude":"-121.8705"},{"Source":"173.241.250.12","Destination":"24.6.173.220","Protocol":"HTTP","TotalLength":2936,"SourceCity":"Pasadena","DestinationCity":"Milpitas","SourceCountry":"United States","DestinationCountry":"United States","SourceLatitude":"34.1484","SourceLongitude":"-118.1662","DestinationLatitude":"37.4404","DestinationLongitude":"-121.8705"},{"Source":"24.6.173.220","Destination":"93.184.216.169","Protocol":"TCP","TotalLength":2898,"SourceCity":"Milpitas","DestinationCity":"","SourceCountry":"United States","DestinationCountry":"United States","SourceLatitude":"37.4404","SourceLongitude":"-121.8705","DestinationLatitude":"38.0000","DestinationLongitude":"-97.0000"},{"Source":"184.28.79.231","Destination":"24.6.173.220","Protocol":"HTTP","TotalLength":2874,"SourceCity":"Cambridge","DestinationCity":"Milpitas","SourceCountry":"United States","DestinationCountry":"United States","SourceLatitude":"42.3626","SourceLongitude":"-71.0843","DestinationLatitude":"37.4404","DestinationLongitude":"-121.8705"},{"Source":"24.6.173.220","Destination":"138.108.6.20","Protocol":"HTTP","TotalLength":2842,"SourceCity":"Milpitas","DestinationCity":"Schaumburg","SourceCountry":"United States","DestinationCountry":"United States","SourceLatitude":"37.4404","SourceLongitude":"-121.8705","DestinationLatitude":"42.0534","DestinationLongitude":"-88.0540"},{"Source":"207.171.185.200","Destination":"24.6.173.220","Protocol":"TLSv1","TotalLength":2813,"SourceCity":"Seattle","DestinationCity":"Milpitas","SourceCountry":"United States","DestinationCountry":"United States","SourceLatitude":"47.6103","SourceLongitude":"-122.3341","DestinationLatitude":"37.4404","DestinationLongitude":"-121.8705"},{"Source":"66.235.138.18","Destination":"24.6.173.220","Protocol":"HTTP","TotalLength":2790,"SourceCity":"Lehi","DestinationCity":"Milpitas","SourceCountry":"United States","DestinationCountry":"United States","SourceLatitude":"40.3245","SourceLongitude":"-111.9618","DestinationLatitude":"37.4404","DestinationLongitude":"-121.8705"},{"Source":"23.7.192.143","Destination":"24.6.173.220","Protocol":"HTTP","TotalLength":2786,"SourceCity":"Cambridge","DestinationCity":"Milpitas","SourceCountry":"United States","DestinationCountry":"United States","SourceLatitude":"42.3626","SourceLongitude":"-71.0843","DestinationLatitude":"37.4404","DestinationLongitude":"-121.8705"},{"Source":"24.6.173.220","Destination":"207.171.163.33","Protocol":"HTTP","TotalLength":2735,"SourceCity":"Milpitas","DestinationCity":"Seattle","SourceCountry":"United States","DestinationCountry":"United States","SourceLatitude":"37.4404","SourceLongitude":"-121.8705","DestinationLatitude":"47.6103","DestinationLongitude":"-122.3341"},{"Source":"24.6.173.220","Destination":"173.241.250.12","Protocol":"HTTP","TotalLength":2685,"SourceCity":"Milpitas","DestinationCity":"Pasadena","SourceCountry":"United States","DestinationCountry":"United States","SourceLatitude":"37.4404","SourceLongitude":"-121.8705","DestinationLatitude":"34.1484","DestinationLongitude":"-118.1662"},{"Source":"216.34.207.133","Destination":"24.6.173.220","Protocol":"HTTP","TotalLength":2640,"SourceCity":"Santa Barbara","DestinationCity":"Milpitas","SourceCountry":"United States","DestinationCountry":"United States","SourceLatitude":"34.4208","SourceLongitude":"-119.6982","DestinationLatitude":"37.4404","DestinationLongitude":"-121.8705"},{"Source":"93.184.216.229","Destination":"24.6.173.220","Protocol":"HTTP","TotalLength":2622,"SourceCity":"","DestinationCity":"Milpitas","SourceCountry":"United States","DestinationCountry":"United States","SourceLatitude":"38.0000","SourceLongitude":"-97.0000","DestinationLatitude":"37.4404","DestinationLongitude":"-121.8705"},{"Source":"24.6.173.220","Destination":"199.7.57.72","Protocol":"OCSP","TotalLength":2610,"SourceCity":"Milpitas","DestinationCity":"Reston","SourceCountry":"United States","DestinationCountry":"United States","SourceLatitude":"37.4404","SourceLongitude":"-121.8705","DestinationLatitude":"38.9599","DestinationLongitude":"-77.3428"},{"Source":"199.7.57.72","Destination":"24.6.173.220","Protocol":"OCSP","TotalLength":2595,"SourceCity":"Reston","DestinationCity":"Milpitas","SourceCountry":"United States","DestinationCountry":"United States","SourceLatitude":"38.9599","SourceLongitude":"-77.3428","DestinationLatitude":"37.4404","DestinationLongitude":"-121.8705"},{"Source":"24.6.173.220","Destination":"207.171.163.33","Protocol":"TCP","TotalLength":2556,"SourceCity":"Milpitas","DestinationCity":"Seattle","SourceCountry":"United States","DestinationCountry":"United States","SourceLatitude":"37.4404","SourceLongitude":"-121.8705","DestinationLatitude":"47.6103","DestinationLongitude":"-122.3341"},{"Source":"68.142.253.12","Destination":"24.6.173.220","Protocol":"HTTP","TotalLength":2489,"SourceCity":"Sunnyvale","DestinationCity":"Milpitas","SourceCountry":"United States","DestinationCountry":"United States","SourceLatitude":"37.4249","SourceLongitude":"-122.0074","DestinationLatitude":"37.4404","DestinationLongitude":"-121.8705"},{"Source":"64.210.61.179","Destination":"24.6.173.220","Protocol":"HTTP","TotalLength":2465,"SourceCity":"New York","DestinationCity":"Milpitas","SourceCountry":"United States","DestinationCountry":"United States","SourceLatitude":"40.7391","SourceLongitude":"-73.9826","DestinationLatitude":"37.4404","DestinationLongitude":"-121.8705"},{"Source":"24.6.173.220","Destination":"63.215.202.48","Protocol":"HTTP","TotalLength":2390,"SourceCity":"Milpitas","DestinationCity":"Amsterdam","SourceCountry":"United States","DestinationCountry":"Netherlands","SourceLatitude":"37.4404","SourceLongitude":"-121.8705","DestinationLatitude":"52.3500","DestinationLongitude":"4.9167"},{"Source":"24.6.173.220","Destination":"107.6.91.102","Protocol":"TCP","TotalLength":2334,"SourceCity":"Milpitas","DestinationCity":"Santa Clara","SourceCountry":"United States","DestinationCountry":"United States","SourceLatitude":"37.4404","SourceLongitude":"-121.8705","DestinationLatitude":"37.3961","DestinationLongitude":"-121.9617"},{"Source":"24.6.173.220","Destination":"184.72.31.86","Protocol":"HTTP","TotalLength":2312,"SourceCity":"Milpitas","DestinationCity":"San Jose","SourceCountry":"United States","DestinationCountry":"United States","SourceLatitude":"37.4404","SourceLongitude":"-121.8705","DestinationLatitude":"37.3394","DestinationLongitude":"-121.8950"},{"Source":"24.6.173.220","Destination":"208.48.131.5","Protocol":"HTTP","TotalLength":2302,"SourceCity":"Milpitas","DestinationCity":"","SourceCountry":"United States","DestinationCountry":"United States","SourceLatitude":"37.4404","SourceLongitude":"-121.8705","DestinationLatitude":"38.0000","DestinationLongitude":"-97.0000"},{"Source":"208.91.172.36","Destination":"24.6.173.220","Protocol":"HTTP","TotalLength":2301,"SourceCity":"Sunnyvale","DestinationCity":"Milpitas","SourceCountry":"United States","DestinationCountry":"United States","SourceLatitude":"37.4249","SourceLongitude":"-122.0074","DestinationLatitude":"37.4404","DestinationLongitude":"-121.8705"},{"Source":"24.6.173.220","Destination":"208.81.191.110","Protocol":"TLSv1","TotalLength":2301,"SourceCity":"Milpitas","DestinationCity":"Mountain View","SourceCountry":"United States","DestinationCountry":"United States","SourceLatitude":"37.4404","SourceLongitude":"-121.8705","DestinationLatitude":"37.3885","DestinationLongitude":"-122.0741"},{"Source":"208.81.191.110","Destination":"24.6.173.220","Protocol":"HTTP","TotalLength":2278,"SourceCity":"Mountain View","DestinationCity":"Milpitas","SourceCountry":"United States","DestinationCountry":"United States","SourceLatitude":"37.3885","SourceLongitude":"-122.0741","DestinationLatitude":"37.4404","DestinationLongitude":"-121.8705"},{"Source":"23.62.228.33","Destination":"24.6.173.220","Protocol":"TCP","TotalLength":2270,"SourceCity":"Cambridge","DestinationCity":"Milpitas","SourceCountry":"United States","DestinationCountry":"United States","SourceLatitude":"42.3626","SourceLongitude":"-71.0843","DestinationLatitude":"37.4404","DestinationLongitude":"-121.8705"},{"Source":"24.6.173.220","Destination":"64.210.61.179","Protocol":"HTTP","TotalLength":2241,"SourceCity":"Milpitas","DestinationCity":"New York","SourceCountry":"United States","DestinationCountry":"United States","SourceLatitude":"37.4404","SourceLongitude":"-121.8705","DestinationLatitude":"40.7391","DestinationLongitude":"-73.9826"},{"Source":"24.6.173.220","Destination":"50.112.101.26","Protocol":"HTTP","TotalLength":2239,"SourceCity":"Milpitas","DestinationCity":"Boardman","SourceCountry":"United States","DestinationCountry":"United States","SourceLatitude":"37.4404","SourceLongitude":"-121.8705","DestinationLatitude":"45.7788","DestinationLongitude":"-119.5290"},{"Source":"24.6.173.220","Destination":"204.154.111.33","Protocol":"HTTP","TotalLength":2220,"SourceCity":"Milpitas","DestinationCity":"","SourceCountry":"United States","DestinationCountry":"United States","SourceLatitude":"37.4404","SourceLongitude":"-121.8705","DestinationLatitude":"38.0000","DestinationLongitude":"-97.0000"},{"Source":"184.72.31.86","Destination":"24.6.173.220","Protocol":"HTTP/XML","TotalLength":2162,"SourceCity":"San Jose","DestinationCity":"Milpitas","SourceCountry":"United States","DestinationCountry":"United States","SourceLatitude":"37.3394","SourceLongitude":"-121.8950","DestinationLatitude":"37.4404","DestinationLongitude":"-121.8705"},{"Source":"24.6.173.220","Destination":"50.18.191.55","Protocol":"HTTP","TotalLength":2154,"SourceCity":"Milpitas","DestinationCity":"San Jose","SourceCountry":"United States","DestinationCountry":"United States","SourceLatitude":"37.4404","SourceLongitude":"-121.8705","DestinationLatitude":"37.3394","DestinationLongitude":"-121.8950"},{"Source":"24.6.173.220","Destination":"216.52.121.177","Protocol":"HTTP","TotalLength":2130,"SourceCity":"Milpitas","DestinationCity":"Atlanta","SourceCountry":"United States","DestinationCountry":"United States","SourceLatitude":"37.4404","SourceLongitude":"-121.8705","DestinationLatitude":"33.7516","DestinationLongitude":"-84.3915"},{"Source":"184.84.222.123","Destination":"24.6.173.220","Protocol":"HTTP","TotalLength":2126,"SourceCity":"Redwood City","DestinationCity":"Milpitas","SourceCountry":"United States","DestinationCountry":"United States","SourceLatitude":"37.4852","SourceLongitude":"-122.2364","DestinationLatitude":"37.4404","DestinationLongitude":"-121.8705"},{"Source":"24.6.173.220","Destination":"74.115.81.69","Protocol":"HTTP","TotalLength":2123,"SourceCity":"Milpitas","DestinationCity":"San Antonio","SourceCountry":"United States","DestinationCountry":"United States","SourceLatitude":"37.4404","SourceLongitude":"-121.8705","DestinationLatitude":"29.4244","DestinationLongitude":"-98.4842"},{"Source":"64.237.104.20","Destination":"24.6.173.220","Protocol":"HTTP","TotalLength":2121,"SourceCity":"Falls Church","DestinationCity":"Milpitas","SourceCountry":"United States","DestinationCountry":"United States","SourceLatitude":"38.8640","SourceLongitude":"-77.1922","DestinationLatitude":"37.4404","DestinationLongitude":"-121.8705"},{"Source":"216.155.207.26","Destination":"24.6.173.220","Protocol":"HTTP","TotalLength":2089,"SourceCity":"Sunnyvale","DestinationCity":"Milpitas","SourceCountry":"United States","DestinationCountry":"United States","SourceLatitude":"37.4249","SourceLongitude":"-122.0074","DestinationLatitude":"37.4404","DestinationLongitude":"-121.8705"},{"Source":"24.6.173.220","Destination":"74.217.78.158","Protocol":"TCP","TotalLength":2088,"SourceCity":"Milpitas","DestinationCity":"San Mateo","SourceCountry":"United States","DestinationCountry":"United States","SourceLatitude":"37.4404","SourceLongitude":"-121.8705","DestinationLatitude":"37.5402","DestinationLongitude":"-122.3041"},{"Source":"24.6.173.220","Destination":"23.23.99.162","Protocol":"HTTP","TotalLength":2078,"SourceCity":"Milpitas","DestinationCity":"Ashburn","SourceCountry":"United States","DestinationCountry":"United States","SourceLatitude":"37.4404","SourceLongitude":"-121.8705","DestinationLatitude":"39.0437","DestinationLongitude":"-77.4875"},{"Source":"173.241.250.12","Destination":"24.6.173.220","Protocol":"TCP","TotalLength":2054,"SourceCity":"Pasadena","DestinationCity":"Milpitas","SourceCountry":"United States","DestinationCountry":"United States","SourceLatitude":"34.1484","SourceLongitude":"-118.1662","DestinationLatitude":"37.4404","DestinationLongitude":"-121.8705"},{"Source":"208.81.191.113","Destination":"24.6.173.220","Protocol":"HTTP","TotalLength":2030,"SourceCity":"Mountain View","DestinationCity":"Milpitas","SourceCountry":"United States","DestinationCountry":"United States","SourceLatitude":"37.3885","SourceLongitude":"-122.0741","DestinationLatitude":"37.4404","DestinationLongitude":"-121.8705"},{"Source":"98.137.88.34","Destination":"24.6.173.220","Protocol":"TCP","TotalLength":2012,"SourceCity":"Sunnyvale","DestinationCity":"Milpitas","SourceCountry":"United States","DestinationCountry":"United States","SourceLatitude":"37.4249","SourceLongitude":"-122.0074","DestinationLatitude":"37.4404","DestinationLongitude":"-121.8705"},{"Source":"24.6.173.220","Destination":"216.34.207.133","Protocol":"TCP","TotalLength":1974,"SourceCity":"Milpitas","DestinationCity":"Santa Barbara","SourceCountry":"United States","DestinationCountry":"United States","SourceLatitude":"37.4404","SourceLongitude":"-121.8705","DestinationLatitude":"34.4208","DestinationLongitude":"-119.6982"},{"Source":"24.6.173.220","Destination":"207.171.185.200","Protocol":"TCP","TotalLength":1962,"SourceCity":"Milpitas","DestinationCity":"Seattle","SourceCountry":"United States","DestinationCountry":"United States","SourceLatitude":"37.4404","SourceLongitude":"-121.8705","DestinationLatitude":"47.6103","DestinationLongitude":"-122.3341"},{"Source":"66.235.138.18","Destination":"24.6.173.220","Protocol":"TCP","TotalLength":1946,"SourceCity":"Lehi","DestinationCity":"Milpitas","SourceCountry":"United States","DestinationCountry":"United States","SourceLatitude":"40.3245","SourceLongitude":"-111.9618","DestinationLatitude":"37.4404","DestinationLongitude":"-121.8705"},{"Source":"208.48.131.3","Destination":"24.6.173.220","Protocol":"TCP","TotalLength":1944,"SourceCity":"","DestinationCity":"Milpitas","SourceCountry":"United States","DestinationCountry":"United States","SourceLatitude":"38.0000","SourceLongitude":"-97.0000","DestinationLatitude":"37.4404","DestinationLongitude":"-121.8705"},{"Source":"24.6.173.220","Destination":"50.112.143.144","Protocol":"TCP","TotalLength":1938,"SourceCity":"Milpitas","DestinationCity":"Boardman","SourceCountry":"United States","DestinationCountry":"United States","SourceLatitude":"37.4404","SourceLongitude":"-121.8705","DestinationLatitude":"45.7788","DestinationLongitude":"-119.5290"},{"Source":"24.6.173.220","Destination":"74.217.78.141","Protocol":"TCP","TotalLength":1926,"SourceCity":"Milpitas","DestinationCity":"San Mateo","SourceCountry":"United States","DestinationCountry":"United States","SourceLatitude":"37.4404","SourceLongitude":"-121.8705","DestinationLatitude":"37.5402","DestinationLongitude":"-122.3041"},{"Source":"24.6.173.220","Destination":"64.94.107.38","Protocol":"HTTP","TotalLength":1904,"SourceCity":"Milpitas","DestinationCity":"Atlanta","SourceCountry":"United States","DestinationCountry":"United States","SourceLatitude":"37.4404","SourceLongitude":"-121.8705","DestinationLatitude":"33.7516","DestinationLongitude":"-84.3915"},{"Source":"24.6.173.220","Destination":"184.85.100.46","Protocol":"HTTP","TotalLength":1842,"SourceCity":"Milpitas","DestinationCity":"Cambridge","SourceCountry":"United States","DestinationCountry":"United States","SourceLatitude":"37.4404","SourceLongitude":"-121.8705","DestinationLatitude":"42.3626","DestinationLongitude":"-71.0843"},{"Source":"74.115.81.69","Destination":"24.6.173.220","Protocol":"TCP","TotalLength":1826,"SourceCity":"San Antonio","DestinationCity":"Milpitas","SourceCountry":"United States","DestinationCountry":"United States","SourceLatitude":"29.4244","SourceLongitude":"-98.4842","DestinationLatitude":"37.4404","DestinationLongitude":"-121.8705"},{"Source":"24.6.173.220","Destination":"66.150.149.23","Protocol":"HTTP","TotalLength":1786,"SourceCity":"Milpitas","DestinationCity":"Atlanta","SourceCountry":"United States","DestinationCountry":"United States","SourceLatitude":"37.4404","SourceLongitude":"-121.8705","DestinationLatitude":"33.7516","DestinationLongitude":"-84.3915"},{"Source":"24.6.173.220","Destination":"208.48.131.3","Protocol":"TCP","TotalLength":1770,"SourceCity":"Milpitas","DestinationCity":"","SourceCountry":"United States","DestinationCountry":"United States","SourceLatitude":"37.4404","SourceLongitude":"-121.8705","DestinationLatitude":"38.0000","DestinationLongitude":"-97.0000"},{"Source":"184.84.222.123","Destination":"24.6.173.220","Protocol":"TCP","TotalLength":1760,"SourceCity":"Redwood City","DestinationCity":"Milpitas","SourceCountry":"United States","DestinationCountry":"United States","SourceLatitude":"37.4852","SourceLongitude":"-122.2364","DestinationLatitude":"37.4404","DestinationLongitude":"-121.8705"},{"Source":"24.6.173.220","Destination":"184.84.222.129","Protocol":"HTTP","TotalLength":1752,"SourceCity":"Milpitas","DestinationCity":"Redwood City","SourceCountry":"United States","DestinationCountry":"United States","SourceLatitude":"37.4404","SourceLongitude":"-121.8705","DestinationLatitude":"37.4852","DestinationLongitude":"-122.2364"},{"Source":"204.11.109.63","Destination":"24.6.173.220","Protocol":"TCP","TotalLength":1720,"SourceCity":"Emeryville","DestinationCity":"Milpitas","SourceCountry":"United States","DestinationCountry":"United States","SourceLatitude":"37.8342","SourceLongitude":"-122.2897","DestinationLatitude":"37.4404","DestinationLongitude":"-121.8705"},{"Source":"24.6.173.220","Destination":"184.84.222.123","Protocol":"HTTP","TotalLength":1698,"SourceCity":"Milpitas","DestinationCity":"Redwood City","SourceCountry":"United States","DestinationCountry":"United States","SourceLatitude":"37.4404","SourceLongitude":"-121.8705","DestinationLatitude":"37.4852","DestinationLongitude":"-122.2364"},{"Source":"66.150.149.23","Destination":"24.6.173.220","Protocol":"HTTP","TotalLength":1693,"SourceCity":"Atlanta","DestinationCity":"Milpitas","SourceCountry":"United States","DestinationCountry":"United States","SourceLatitude":"33.7516","SourceLongitude":"-84.3915","DestinationLatitude":"37.4404","DestinationLongitude":"-121.8705"},{"Source":"204.144.141.26","Destination":"24.6.173.220","Protocol":"TCP","TotalLength":1686,"SourceCity":"Boulder","DestinationCity":"Milpitas","SourceCountry":"United States","DestinationCountry":"United States","SourceLatitude":"40.0150","SourceLongitude":"-105.2706","DestinationLatitude":"37.4404","DestinationLongitude":"-121.8705"},{"Source":"184.84.222.129","Destination":"24.6.173.220","Protocol":"HTTP","TotalLength":1680,"SourceCity":"Redwood City","DestinationCity":"Milpitas","SourceCountry":"United States","DestinationCountry":"United States","SourceLatitude":"37.4852","SourceLongitude":"-122.2364","DestinationLatitude":"37.4404","DestinationLongitude":"-121.8705"},{"Source":"184.85.109.229","Destination":"24.6.173.220","Protocol":"HTTP/XML","TotalLength":1680,"SourceCity":"Cambridge","DestinationCity":"Milpitas","SourceCountry":"United States","DestinationCountry":"United States","SourceLatitude":"42.3626","SourceLongitude":"-71.0843","DestinationLatitude":"37.4404","DestinationLongitude":"-121.8705"},{"Source":"205.251.215.159","Destination":"24.6.173.220","Protocol":"HTTP","TotalLength":1671,"SourceCity":"Seattle","DestinationCity":"Milpitas","SourceCountry":"United States","DestinationCountry":"United States","SourceLatitude":"47.6103","SourceLongitude":"-122.3341","DestinationLatitude":"37.4404","DestinationLongitude":"-121.8705"},{"Source":"205.251.215.12","Destination":"24.6.173.220","Protocol":"TCP","TotalLength":1640,"SourceCity":"Seattle","DestinationCity":"Milpitas","SourceCountry":"United States","DestinationCountry":"United States","SourceLatitude":"47.6103","SourceLongitude":"-122.3341","DestinationLatitude":"37.4404","DestinationLongitude":"-121.8705"},{"Source":"207.171.187.118","Destination":"24.6.173.220","Protocol":"HTTP","TotalLength":1616,"SourceCity":"Seattle","DestinationCity":"Milpitas","SourceCountry":"United States","DestinationCountry":"United States","SourceLatitude":"47.6103","SourceLongitude":"-122.3341","DestinationLatitude":"37.4404","DestinationLongitude":"-121.8705"},{"Source":"24.6.173.220","Destination":"208.81.191.97","Protocol":"HTTP","TotalLength":1608,"SourceCity":"Milpitas","DestinationCity":"Mountain View","SourceCountry":"United States","DestinationCountry":"United States","SourceLatitude":"37.4404","SourceLongitude":"-121.8705","DestinationLatitude":"37.3885","DestinationLongitude":"-122.0741"},{"Source":"24.6.173.220","Destination":"184.85.109.229","Protocol":"HTTP","TotalLength":1603,"SourceCity":"Milpitas","DestinationCity":"Cambridge","SourceCountry":"United States","DestinationCountry":"United States","SourceLatitude":"37.4404","SourceLongitude":"-121.8705","DestinationLatitude":"42.3626","DestinationLongitude":"-71.0843"},{"Source":"184.84.222.145","Destination":"24.6.173.220","Protocol":"HTTP","TotalLength":1583,"SourceCity":"Redwood City","DestinationCity":"Milpitas","SourceCountry":"United States","DestinationCountry":"United States","SourceLatitude":"37.4852","SourceLongitude":"-122.2364","DestinationLatitude":"37.4404","DestinationLongitude":"-121.8705"},{"Source":"216.34.207.133","Destination":"24.6.173.220","Protocol":"HTTP/XML","TotalLength":1579,"SourceCity":"Santa Barbara","DestinationCity":"Milpitas","SourceCountry":"United States","DestinationCountry":"United States","SourceLatitude":"34.4208","SourceLongitude":"-119.6982","DestinationLatitude":"37.4404","DestinationLongitude":"-121.8705"},{"Source":"50.112.101.26","Destination":"24.6.173.220","Protocol":"HTTP","TotalLength":1566,"SourceCity":"Boardman","DestinationCity":"Milpitas","SourceCountry":"United States","DestinationCountry":"United States","SourceLatitude":"45.7788","SourceLongitude":"-119.5290","DestinationLatitude":"37.4404","DestinationLongitude":"-121.8705"},{"Source":"24.6.173.220","Destination":"68.142.253.12","Protocol":"HTTP","TotalLength":1549,"SourceCity":"Milpitas","DestinationCity":"Sunnyvale","SourceCountry":"United States","DestinationCountry":"United States","SourceLatitude":"37.4404","SourceLongitude":"-121.8705","DestinationLatitude":"37.4249","DestinationLongitude":"-122.0074"},{"Source":"24.6.173.220","Destination":"184.84.222.129","Protocol":"TCP","TotalLength":1536,"SourceCity":"Milpitas","DestinationCity":"Redwood City","SourceCountry":"United States","DestinationCountry":"United States","SourceLatitude":"37.4404","SourceLongitude":"-121.8705","DestinationLatitude":"37.4852","DestinationLongitude":"-122.2364"},{"Source":"12.129.199.106","Destination":"24.6.173.220","Protocol":"HTTP","TotalLength":1518,"SourceCity":"","DestinationCity":"Milpitas","SourceCountry":"United States","DestinationCountry":"United States","SourceLatitude":"38.0000","SourceLongitude":"-97.0000","DestinationLatitude":"37.4404","DestinationLongitude":"-121.8705"},{"Source":"24.6.173.220","Destination":"184.84.222.145","Protocol":"HTTP","TotalLength":1513,"SourceCity":"Milpitas","DestinationCity":"Redwood City","SourceCountry":"United States","DestinationCountry":"United States","SourceLatitude":"37.4404","SourceLongitude":"-121.8705","DestinationLatitude":"37.4852","DestinationLongitude":"-122.2364"},{"Source":"24.6.173.220","Destination":"208.48.131.5","Protocol":"TCP","TotalLength":1500,"SourceCity":"Milpitas","DestinationCity":"","SourceCountry":"United States","DestinationCountry":"United States","SourceLatitude":"37.4404","SourceLongitude":"-121.8705","DestinationLatitude":"38.0000","DestinationLongitude":"-97.0000"},{"Source":"24.6.173.220","Destination":"204.11.109.63","Protocol":"HTTP","TotalLength":1452,"SourceCity":"Milpitas","DestinationCity":"Emeryville","SourceCountry":"United States","DestinationCountry":"United States","SourceLatitude":"37.4404","SourceLongitude":"-121.8705","DestinationLatitude":"37.8342","DestinationLongitude":"-122.2897"},{"Source":"24.6.173.220","Destination":"50.18.86.99","Protocol":"HTTP","TotalLength":1425,"SourceCity":"Milpitas","DestinationCity":"San Jose","SourceCountry":"United States","DestinationCountry":"United States","SourceLatitude":"37.4404","SourceLongitude":"-121.8705","DestinationLatitude":"37.3394","DestinationLongitude":"-121.8950"},{"Source":"138.108.6.20","Destination":"24.6.173.220","Protocol":"HTTP","TotalLength":1416,"SourceCity":"Schaumburg","DestinationCity":"Milpitas","SourceCountry":"United States","DestinationCountry":"United States","SourceLatitude":"42.0534","SourceLongitude":"-88.0540","DestinationLatitude":"37.4404","DestinationLongitude":"-121.8705"},{"Source":"66.109.241.50","Destination":"24.6.173.220","Protocol":"HTTP","TotalLength":1411,"SourceCity":"","DestinationCity":"Milpitas","SourceCountry":"United States","DestinationCountry":"United States","SourceLatitude":"38.0000","SourceLongitude":"-97.0000","DestinationLatitude":"37.4404","DestinationLongitude":"-121.8705"},{"Source":"199.233.57.41","Destination":"24.6.173.220","Protocol":"HTTP","TotalLength":1375,"SourceCity":"","DestinationCity":"Milpitas","SourceCountry":"United States","DestinationCountry":"United States","SourceLatitude":"38.0000","SourceLongitude":"-97.0000","DestinationLatitude":"37.4404","DestinationLongitude":"-121.8705"},{"Source":"50.112.143.144","Destination":"24.6.173.220","Protocol":"TCP","TotalLength":1368,"SourceCity":"Boardman","DestinationCity":"Milpitas","SourceCountry":"United States","DestinationCountry":"United States","SourceLatitude":"45.7788","SourceLongitude":"-119.5290","DestinationLatitude":"37.4404","DestinationLongitude":"-121.8705"},{"Source":"184.84.222.136","Destination":"24.6.173.220","Protocol":"HTTP/XML","TotalLength":1366,"SourceCity":"Redwood City","DestinationCity":"Milpitas","SourceCountry":"United States","DestinationCountry":"United States","SourceLatitude":"37.4852","SourceLongitude":"-122.2364","DestinationLatitude":"37.4404","DestinationLongitude":"-121.8705"},{"Source":"24.6.173.220","Destination":"208.91.172.36","Protocol":"HTTP","TotalLength":1334,"SourceCity":"Milpitas","DestinationCity":"Sunnyvale","SourceCountry":"United States","DestinationCountry":"United States","SourceLatitude":"37.4404","SourceLongitude":"-121.8705","DestinationLatitude":"37.4249","DestinationLongitude":"-122.0074"},{"Source":"50.18.86.99","Destination":"24.6.173.220","Protocol":"HTTP/XML","TotalLength":1322,"SourceCity":"San Jose","DestinationCity":"Milpitas","SourceCountry":"United States","DestinationCountry":"United States","SourceLatitude":"37.3394","SourceLongitude":"-121.8950","DestinationLatitude":"37.4404","DestinationLongitude":"-121.8705"},{"Source":"24.6.173.220","Destination":"93.184.216.229","Protocol":"TCP","TotalLength":1320,"SourceCity":"Milpitas","DestinationCity":"","SourceCountry":"United States","DestinationCountry":"United States","SourceLatitude":"37.4404","SourceLongitude":"-121.8705","DestinationLatitude":"38.0000","DestinationLongitude":"-97.0000"},{"Source":"98.137.88.34","Destination":"24.6.173.220","Protocol":"HTTP","TotalLength":1310,"SourceCity":"Sunnyvale","DestinationCity":"Milpitas","SourceCountry":"United States","DestinationCountry":"United States","SourceLatitude":"37.4249","SourceLongitude":"-122.0074","DestinationLatitude":"37.4404","DestinationLongitude":"-121.8705"},{"Source":"24.6.173.220","Destination":"184.86.112.74","Protocol":"TCP","TotalLength":1302,"SourceCity":"Milpitas","DestinationCity":"Cambridge","SourceCountry":"United States","DestinationCountry":"United States","SourceLatitude":"37.4404","SourceLongitude":"-121.8705","DestinationLatitude":"42.3626","DestinationLongitude":"-71.0843"},{"Source":"74.217.78.158","Destination":"24.6.173.220","Protocol":"HTTP","TotalLength":1296,"SourceCity":"San Mateo","DestinationCity":"Milpitas","SourceCountry":"United States","DestinationCountry":"United States","SourceLatitude":"37.5402","SourceLongitude":"-122.3041","DestinationLatitude":"37.4404","DestinationLongitude":"-121.8705"},{"Source":"24.6.173.220","Destination":"68.142.253.31","Protocol":"HTTP","TotalLength":1283,"SourceCity":"Milpitas","DestinationCity":"Sunnyvale","SourceCountry":"United States","DestinationCountry":"United States","SourceLatitude":"37.4404","SourceLongitude":"-121.8705","DestinationLatitude":"37.4249","DestinationLongitude":"-122.0074"},{"Source":"24.6.173.220","Destination":"69.194.244.13","Protocol":"HTTP","TotalLength":1273,"SourceCity":"Milpitas","DestinationCity":"Redwood City","SourceCountry":"United States","DestinationCountry":"United States","SourceLatitude":"37.4404","SourceLongitude":"-121.8705","DestinationLatitude":"37.4914","DestinationLongitude":"-122.2110"},{"Source":"204.145.83.238","Destination":"24.6.173.220","Protocol":"TCP","TotalLength":1269,"SourceCity":"","DestinationCity":"Milpitas","SourceCountry":"United States","DestinationCountry":"United States","SourceLatitude":"38.0000","SourceLongitude":"-97.0000","DestinationLatitude":"37.4404","DestinationLongitude":"-121.8705"},{"Source":"69.16.175.10","Destination":"24.6.173.220","Protocol":"HTTP","TotalLength":1265,"SourceCity":"Phoenix","DestinationCity":"Milpitas","SourceCountry":"United States","DestinationCountry":"United States","SourceLatitude":"33.5083","SourceLongitude":"-112.0717","DestinationLatitude":"37.4404","DestinationLongitude":"-121.8705"},{"Source":"24.6.173.220","Destination":"23.7.192.143","Protocol":"TCP","TotalLength":1260,"SourceCity":"Milpitas","DestinationCity":"Cambridge","SourceCountry":"United States","DestinationCountry":"United States","SourceLatitude":"37.4404","SourceLongitude":"-121.8705","DestinationLatitude":"42.3626","DestinationLongitude":"-71.0843"},{"Source":"24.6.173.220","Destination":"184.72.62.138","Protocol":"HTTP","TotalLength":1255,"SourceCity":"Milpitas","DestinationCity":"San Jose","SourceCountry":"United States","DestinationCountry":"United States","SourceLatitude":"37.4404","SourceLongitude":"-121.8705","DestinationLatitude":"37.3394","DestinationLongitude":"-121.8950"},{"Source":"8.19.18.18","Destination":"24.6.173.220","Protocol":"HTTP","TotalLength":1250,"SourceCity":"New York","DestinationCity":"Milpitas","SourceCountry":"United States","DestinationCountry":"United States","SourceLatitude":"40.7391","SourceLongitude":"-73.9826","DestinationLatitude":"37.4404","DestinationLongitude":"-121.8705"},{"Source":"74.217.78.158","Destination":"24.6.173.220","Protocol":"TCP","TotalLength":1248,"SourceCity":"San Mateo","DestinationCity":"Milpitas","SourceCountry":"United States","DestinationCountry":"United States","SourceLatitude":"37.5402","SourceLongitude":"-122.3041","DestinationLatitude":"37.4404","DestinationLongitude":"-121.8705"},{"Source":"24.6.173.220","Destination":"208.81.191.113","Protocol":"TCP","TotalLength":1248,"SourceCity":"Milpitas","DestinationCity":"Mountain View","SourceCountry":"United States","DestinationCountry":"United States","SourceLatitude":"37.4404","SourceLongitude":"-121.8705","DestinationLatitude":"37.3885","DestinationLongitude":"-122.0741"},{"Source":"24.6.173.220","Destination":"208.71.123.129","Protocol":"TCP","TotalLength":1248,"SourceCity":"Milpitas","DestinationCity":"New York","SourceCountry":"United States","DestinationCountry":"United States","SourceLatitude":"37.4404","SourceLongitude":"-121.8705","DestinationLatitude":"40.7517","DestinationLongitude":"-73.9972"},{"Source":"64.94.107.38","Destination":"24.6.173.220","Protocol":"HTTP","TotalLength":1239,"SourceCity":"Atlanta","DestinationCity":"Milpitas","SourceCountry":"United States","DestinationCountry":"United States","SourceLatitude":"33.7516","SourceLongitude":"-84.3915","DestinationLatitude":"37.4404","DestinationLongitude":"-121.8705"},{"Source":"74.115.81.69","Destination":"24.6.173.220","Protocol":"HTTP","TotalLength":1233,"SourceCity":"San Antonio","DestinationCity":"Milpitas","SourceCountry":"United States","DestinationCountry":"United States","SourceLatitude":"29.4244","SourceLongitude":"-98.4842","DestinationLatitude":"37.4404","DestinationLongitude":"-121.8705"},{"Source":"24.6.173.220","Destination":"23.62.228.33","Protocol":"TCP","TotalLength":1230,"SourceCity":"Milpitas","DestinationCity":"Cambridge","SourceCountry":"United States","DestinationCountry":"United States","SourceLatitude":"37.4404","SourceLongitude":"-121.8705","DestinationLatitude":"42.3626","DestinationLongitude":"-71.0843"},{"Source":"68.142.253.31","Destination":"24.6.173.220","Protocol":"HTTP","TotalLength":1199,"SourceCity":"Sunnyvale","DestinationCity":"Milpitas","SourceCountry":"United States","DestinationCountry":"United States","SourceLatitude":"37.4249","SourceLongitude":"-122.0074","DestinationLatitude":"37.4404","DestinationLongitude":"-121.8705"},{"Source":"24.6.173.220","Destination":"63.215.202.49","Protocol":"TCP","TotalLength":1182,"SourceCity":"Milpitas","DestinationCity":"Amsterdam","SourceCountry":"United States","DestinationCountry":"Netherlands","SourceLatitude":"37.4404","SourceLongitude":"-121.8705","DestinationLatitude":"52.3500","DestinationLongitude":"4.9167"},{"Source":"24.6.173.220","Destination":"93.184.216.229","Protocol":"HTTP","TotalLength":1181,"SourceCity":"Milpitas","DestinationCity":"","SourceCountry":"United States","DestinationCountry":"United States","SourceLatitude":"37.4404","SourceLongitude":"-121.8705","DestinationLatitude":"38.0000","DestinationLongitude":"-97.0000"},{"Source":"24.6.173.220","Destination":"50.17.229.22","Protocol":"HTTP","TotalLength":1171,"SourceCity":"Milpitas","DestinationCity":"Ashburn","SourceCountry":"United States","DestinationCountry":"United States","SourceLatitude":"37.4404","SourceLongitude":"-121.8705","DestinationLatitude":"39.0437","DestinationLongitude":"-77.4875"},{"Source":"24.6.173.220","Destination":"23.62.228.24","Protocol":"TCP","TotalLength":1170,"SourceCity":"Milpitas","DestinationCity":"Cambridge","SourceCountry":"United States","DestinationCountry":"United States","SourceLatitude":"37.4404","SourceLongitude":"-121.8705","DestinationLatitude":"42.3626","DestinationLongitude":"-71.0843"},{"Source":"66.94.240.25","Destination":"24.6.173.220","Protocol":"TCP","TotalLength":1154,"SourceCity":"Sunnyvale","DestinationCity":"Milpitas","SourceCountry":"United States","DestinationCountry":"United States","SourceLatitude":"37.4249","SourceLongitude":"-122.0074","DestinationLatitude":"37.4404","DestinationLongitude":"-121.8705"},{"Source":"184.85.100.46","Destination":"24.6.173.220","Protocol":"HTTP","TotalLength":1150,"SourceCity":"Cambridge","DestinationCity":"Milpitas","SourceCountry":"United States","DestinationCountry":"United States","SourceLatitude":"42.3626","SourceLongitude":"-71.0843","DestinationLatitude":"37.4404","DestinationLongitude":"-121.8705"},{"Source":"24.6.173.220","Destination":"64.74.80.187","Protocol":"TCP","TotalLength":1140,"SourceCity":"Milpitas","DestinationCity":"Atlanta","SourceCountry":"United States","DestinationCountry":"United States","SourceLatitude":"37.4404","SourceLongitude":"-121.8705","DestinationLatitude":"33.7516","DestinationLongitude":"-84.3915"},{"Source":"24.6.173.220","Destination":"64.94.107.38","Protocol":"TCP","TotalLength":1140,"SourceCity":"Milpitas","DestinationCity":"Atlanta","SourceCountry":"United States","DestinationCountry":"United States","SourceLatitude":"37.4404","SourceLongitude":"-121.8705","DestinationLatitude":"33.7516","DestinationLongitude":"-84.3915"},{"Source":"24.6.173.220","Destination":"202.173.28.250","Protocol":"TCP","TotalLength":1140,"SourceCity":"Milpitas","DestinationCity":"Sydney","SourceCountry":"United States","DestinationCountry":"Australia","SourceLatitude":"37.4404","SourceLongitude":"-121.8705","DestinationLatitude":"-33.8615","DestinationLongitude":"151.2055"},{"Source":"24.6.173.220","Destination":"67.217.65.244","Protocol":"TCP","TotalLength":1140,"SourceCity":"Milpitas","DestinationCity":"Goleta","SourceCountry":"United States","DestinationCountry":"United States","SourceLatitude":"37.4404","SourceLongitude":"-121.8705","DestinationLatitude":"34.5021","DestinationLongitude":"-120.1287"},{"Source":"24.6.173.220","Destination":"184.72.31.86","Protocol":"TCP","TotalLength":1140,"SourceCity":"Milpitas","DestinationCity":"San Jose","SourceCountry":"United States","DestinationCountry":"United States","SourceLatitude":"37.4404","SourceLongitude":"-121.8705","DestinationLatitude":"37.3394","DestinationLongitude":"-121.8950"},{"Source":"24.6.173.220","Destination":"216.115.212.254","Protocol":"TCP","TotalLength":1140,"SourceCity":"Milpitas","DestinationCity":"Goleta","SourceCountry":"United States","DestinationCountry":"United States","SourceLatitude":"37.4404","SourceLongitude":"-121.8705","DestinationLatitude":"34.5021","DestinationLongitude":"-120.1287"},{"Source":"208.93.137.190","Destination":"24.6.173.220","Protocol":"HTTP","TotalLength":1139,"SourceCity":"San Jose","DestinationCity":"Milpitas","SourceCountry":"United States","DestinationCountry":"United States","SourceLatitude":"37.3394","SourceLongitude":"-121.8950","DestinationLatitude":"37.4404","DestinationLongitude":"-121.8705"},{"Source":"184.73.46.94","Destination":"24.6.173.220","Protocol":"HTTP","TotalLength":1135,"SourceCity":"Ashburn","DestinationCity":"Milpitas","SourceCountry":"United States","DestinationCountry":"United States","SourceLatitude":"39.0437","SourceLongitude":"-77.4875","DestinationLatitude":"37.4404","DestinationLongitude":"-121.8705"},{"Source":"24.6.173.220","Destination":"184.84.222.136","Protocol":"TCP","TotalLength":1116,"SourceCity":"Milpitas","DestinationCity":"Redwood City","SourceCountry":"United States","DestinationCountry":"United States","SourceLatitude":"37.4404","SourceLongitude":"-121.8705","DestinationLatitude":"37.4852","DestinationLongitude":"-122.2364"},{"Source":"24.6.173.220","Destination":"199.7.57.72","Protocol":"TCP","TotalLength":1098,"SourceCity":"Milpitas","DestinationCity":"Reston","SourceCountry":"United States","DestinationCountry":"United States","SourceLatitude":"37.4404","SourceLongitude":"-121.8705","DestinationLatitude":"38.9599","DestinationLongitude":"-77.3428"},{"Source":"24.6.173.220","Destination":"199.233.57.41","Protocol":"TCP","TotalLength":1086,"SourceCity":"Milpitas","DestinationCity":"","SourceCountry":"United States","DestinationCountry":"United States","SourceLatitude":"37.4404","SourceLongitude":"-121.8705","DestinationLatitude":"38.0000","DestinationLongitude":"-97.0000"},{"Source":"107.22.17.21","Destination":"24.6.173.220","Protocol":"HTTP","TotalLength":1066,"SourceCity":"Ashburn","DestinationCity":"Milpitas","SourceCountry":"United States","DestinationCountry":"United States","SourceLatitude":"39.0437","SourceLongitude":"-77.4875","DestinationLatitude":"37.4404","DestinationLongitude":"-121.8705"},{"Source":"216.52.121.177","Destination":"24.6.173.220","Protocol":"HTTP","TotalLength":1054,"SourceCity":"Atlanta","DestinationCity":"Milpitas","SourceCountry":"United States","DestinationCountry":"United States","SourceLatitude":"33.7516","SourceLongitude":"-84.3915","DestinationLatitude":"37.4404","DestinationLongitude":"-121.8705"},{"Source":"24.6.173.220","Destination":"64.237.104.20","Protocol":"HTTP","TotalLength":1054,"SourceCity":"Milpitas","DestinationCity":"Falls Church","SourceCountry":"United States","DestinationCountry":"United States","SourceLatitude":"37.4404","SourceLongitude":"-121.8705","DestinationLatitude":"38.8640","DestinationLongitude":"-77.1922"},{"Source":"208.81.191.97","Destination":"24.6.173.220","Protocol":"HTTP","TotalLength":1052,"SourceCity":"Mountain View","DestinationCity":"Milpitas","SourceCountry":"United States","DestinationCountry":"United States","SourceLatitude":"37.3885","SourceLongitude":"-122.0741","DestinationLatitude":"37.4404","DestinationLongitude":"-121.8705"},{"Source":"24.6.173.220","Destination":"205.251.215.159","Protocol":"HTTP","TotalLength":1049,"SourceCity":"Milpitas","DestinationCity":"Seattle","SourceCountry":"United States","DestinationCountry":"United States","SourceLatitude":"37.4404","SourceLongitude":"-121.8705","DestinationLatitude":"47.6103","DestinationLongitude":"-122.3341"},{"Source":"24.6.173.220","Destination":"66.150.149.24","Protocol":"TCP","TotalLength":1032,"SourceCity":"Milpitas","DestinationCity":"Atlanta","SourceCountry":"United States","DestinationCountry":"United States","SourceLatitude":"37.4404","SourceLongitude":"-121.8705","DestinationLatitude":"33.7516","DestinationLongitude":"-84.3915"},{"Source":"24.6.173.220","Destination":"66.109.241.50","Protocol":"TCP","TotalLength":1020,"SourceCity":"Milpitas","DestinationCity":"","SourceCountry":"United States","DestinationCountry":"United States","SourceLatitude":"37.4404","SourceLongitude":"-121.8705","DestinationLatitude":"38.0000","DestinationLongitude":"-97.0000"},{"Source":"24.6.173.220","Destination":"23.23.254.40","Protocol":"TCP","TotalLength":996,"SourceCity":"Milpitas","DestinationCity":"Ashburn","SourceCountry":"United States","DestinationCountry":"United States","SourceLatitude":"37.4404","SourceLongitude":"-121.8705","DestinationLatitude":"39.0437","DestinationLongitude":"-77.4875"},{"Source":"24.6.173.220","Destination":"50.112.101.26","Protocol":"TCP","TotalLength":966,"SourceCity":"Milpitas","DestinationCity":"Boardman","SourceCountry":"United States","DestinationCountry":"United States","SourceLatitude":"37.4404","SourceLongitude":"-121.8705","DestinationLatitude":"45.7788","DestinationLongitude":"-119.5290"},{"Source":"24.6.173.220","Destination":"23.23.254.40","Protocol":"HTTP","TotalLength":951,"SourceCity":"Milpitas","DestinationCity":"Ashburn","SourceCountry":"United States","DestinationCountry":"United States","SourceLatitude":"37.4404","SourceLongitude":"-121.8705","DestinationLatitude":"39.0437","DestinationLongitude":"-77.4875"},{"Source":"24.6.173.220","Destination":"173.241.250.6","Protocol":"HTTP","TotalLength":918,"SourceCity":"Milpitas","DestinationCity":"Pasadena","SourceCountry":"United States","DestinationCountry":"United States","SourceLatitude":"37.4404","SourceLongitude":"-121.8705","DestinationLatitude":"34.1484","DestinationLongitude":"-118.1662"},{"Source":"24.6.173.220","Destination":"63.135.172.251","Protocol":"HTTP","TotalLength":918,"SourceCity":"Milpitas","DestinationCity":"Duluth","SourceCountry":"United States","DestinationCountry":"United States","SourceLatitude":"37.4404","SourceLongitude":"-121.8705","DestinationLatitude":"34.0029","DestinationLongitude":"-84.1446"},{"Source":"24.6.173.220","Destination":"216.52.121.177","Protocol":"TCP","TotalLength":912,"SourceCity":"Milpitas","DestinationCity":"Atlanta","SourceCountry":"United States","DestinationCountry":"United States","SourceLatitude":"37.4404","SourceLongitude":"-121.8705","DestinationLatitude":"33.7516","DestinationLongitude":"-84.3915"},{"Source":"24.6.173.220","Destination":"50.18.86.99","Protocol":"TCP","TotalLength":912,"SourceCity":"Milpitas","DestinationCity":"San Jose","SourceCountry":"United States","DestinationCountry":"United States","SourceLatitude":"37.4404","SourceLongitude":"-121.8705","DestinationLatitude":"37.3394","DestinationLongitude":"-121.8950"},{"Source":"24.6.173.220","Destination":"173.241.250.12","Protocol":"TCP","TotalLength":912,"SourceCity":"Milpitas","DestinationCity":"Pasadena","SourceCountry":"United States","DestinationCountry":"United States","SourceLatitude":"37.4404","SourceLongitude":"-121.8705","DestinationLatitude":"34.1484","DestinationLongitude":"-118.1662"},{"Source":"24.6.173.220","Destination":"23.23.99.162","Protocol":"TCP","TotalLength":912,"SourceCity":"Milpitas","DestinationCity":"Ashburn","SourceCountry":"United States","DestinationCountry":"United States","SourceLatitude":"37.4404","SourceLongitude":"-121.8705","DestinationLatitude":"39.0437","DestinationLongitude":"-77.4875"},{"Source":"184.72.62.138","Destination":"24.6.173.220","Protocol":"HTTP","TotalLength":906,"SourceCity":"San Jose","DestinationCity":"Milpitas","SourceCountry":"United States","DestinationCountry":"United States","SourceLatitude":"37.3394","SourceLongitude":"-121.8950","DestinationLatitude":"37.4404","DestinationLongitude":"-121.8705"},{"Source":"24.6.173.220","Destination":"107.22.17.21","Protocol":"HTTP","TotalLength":898,"SourceCity":"Milpitas","DestinationCity":"Ashburn","SourceCountry":"United States","DestinationCountry":"United States","SourceLatitude":"37.4404","SourceLongitude":"-121.8705","DestinationLatitude":"39.0437","DestinationLongitude":"-77.4875"},{"Source":"24.6.173.220","Destination":"96.17.148.18","Protocol":"TCP","TotalLength":888,"SourceCity":"Milpitas","DestinationCity":"Cambridge","SourceCountry":"United States","DestinationCountry":"United States","SourceLatitude":"37.4404","SourceLongitude":"-121.8705","DestinationLatitude":"42.3626","DestinationLongitude":"-71.0843"},{"Source":"24.6.173.220","Destination":"204.145.83.238","Protocol":"HTTP","TotalLength":868,"SourceCity":"Milpitas","DestinationCity":"","SourceCountry":"United States","DestinationCountry":"United States","SourceLatitude":"37.4404","SourceLongitude":"-121.8705","DestinationLatitude":"38.0000","DestinationLongitude":"-97.0000"},{"Source":"63.215.202.49","Destination":"24.6.173.220","Protocol":"HTTP","TotalLength":861,"SourceCity":"Amsterdam","DestinationCity":"Milpitas","SourceCountry":"Netherlands","DestinationCountry":"United States","SourceLatitude":"52.3500","SourceLongitude":"4.9167","DestinationLatitude":"37.4404","DestinationLongitude":"-121.8705"},{"Source":"24.6.173.220","Destination":"68.142.253.12","Protocol":"TCP","TotalLength":858,"SourceCity":"Milpitas","DestinationCity":"Sunnyvale","SourceCountry":"United States","DestinationCountry":"United States","SourceLatitude":"37.4404","SourceLongitude":"-121.8705","DestinationLatitude":"37.4249","DestinationLongitude":"-122.0074"},{"Source":"24.6.173.220","Destination":"184.73.46.94","Protocol":"HTTP","TotalLength":856,"SourceCity":"Milpitas","DestinationCity":"Ashburn","SourceCountry":"United States","DestinationCountry":"United States","SourceLatitude":"37.4404","SourceLongitude":"-121.8705","DestinationLatitude":"39.0437","DestinationLongitude":"-77.4875"},{"Source":"208.81.191.113","Destination":"24.6.173.220","Protocol":"TCP","TotalLength":850,"SourceCity":"Mountain View","DestinationCity":"Milpitas","SourceCountry":"United States","DestinationCountry":"United States","SourceLatitude":"37.3885","SourceLongitude":"-122.0741","DestinationLatitude":"37.4404","DestinationLongitude":"-121.8705"},{"Source":"24.6.173.220","Destination":"199.38.166.155","Protocol":"HTTP","TotalLength":846,"SourceCity":"Milpitas","DestinationCity":"New York","SourceCountry":"United States","DestinationCountry":"United States","SourceLatitude":"37.4404","SourceLongitude":"-121.8705","DestinationLatitude":"40.7449","DestinationLongitude":"-73.9782"},{"Source":"24.6.173.220","Destination":"64.210.61.179","Protocol":"TCP","TotalLength":846,"SourceCity":"Milpitas","DestinationCity":"New York","SourceCountry":"United States","DestinationCountry":"United States","SourceLatitude":"37.4404","SourceLongitude":"-121.8705","DestinationLatitude":"40.7391","DestinationLongitude":"-73.9826"},{"Source":"24.6.173.220","Destination":"207.171.187.118","Protocol":"HTTP","TotalLength":839,"SourceCity":"Milpitas","DestinationCity":"Seattle","SourceCountry":"United States","DestinationCountry":"United States","SourceLatitude":"37.4404","SourceLongitude":"-121.8705","DestinationLatitude":"47.6103","DestinationLongitude":"-122.3341"},{"Source":"63.135.172.251","Destination":"24.6.173.220","Protocol":"HTTP","TotalLength":837,"SourceCity":"Duluth","DestinationCity":"Milpitas","SourceCountry":"United States","DestinationCountry":"United States","SourceLatitude":"34.0029","SourceLongitude":"-84.1446","DestinationLatitude":"37.4404","DestinationLongitude":"-121.8705"},{"Source":"24.6.173.220","Destination":"12.129.199.106","Protocol":"HTTP","TotalLength":830,"SourceCity":"Milpitas","DestinationCity":"","SourceCountry":"United States","DestinationCountry":"United States","SourceLatitude":"37.4404","SourceLongitude":"-121.8705","DestinationLatitude":"38.0000","DestinationLongitude":"-97.0000"},{"Source":"23.23.254.40","Destination":"24.6.173.220","Protocol":"HTTP","TotalLength":825,"SourceCity":"Ashburn","DestinationCity":"Milpitas","SourceCountry":"United States","DestinationCountry":"United States","SourceLatitude":"39.0437","SourceLongitude":"-77.4875","DestinationLatitude":"37.4404","DestinationLongitude":"-121.8705"},{"Source":"204.154.111.33","Destination":"24.6.173.220","Protocol":"TCP","TotalLength":810,"SourceCity":"","DestinationCity":"Milpitas","SourceCountry":"United States","DestinationCountry":"United States","SourceLatitude":"38.0000","SourceLongitude":"-97.0000","DestinationLatitude":"37.4404","DestinationLongitude":"-121.8705"},{"Source":"199.233.57.41","Destination":"24.6.173.220","Protocol":"TCP","TotalLength":810,"SourceCity":"","DestinationCity":"Milpitas","SourceCountry":"United States","DestinationCountry":"United States","SourceLatitude":"38.0000","SourceLongitude":"-97.0000","DestinationLatitude":"37.4404","DestinationLongitude":"-121.8705"},{"Source":"24.6.173.220","Destination":"208.91.172.36","Protocol":"TCP","TotalLength":804,"SourceCity":"Milpitas","DestinationCity":"Sunnyvale","SourceCountry":"United States","DestinationCountry":"United States","SourceLatitude":"37.4404","SourceLongitude":"-121.8705","DestinationLatitude":"37.4249","DestinationLongitude":"-122.0074"},{"Source":"24.6.173.220","Destination":"184.73.197.77","Protocol":"TCP","TotalLength":792,"SourceCity":"Milpitas","DestinationCity":"Ashburn","SourceCountry":"United States","DestinationCountry":"United States","SourceLatitude":"37.4404","SourceLongitude":"-121.8705","DestinationLatitude":"39.0437","DestinationLongitude":"-77.4875"},{"Source":"24.6.173.220","Destination":"207.171.187.118","Protocol":"TCP","TotalLength":780,"SourceCity":"Milpitas","DestinationCity":"Seattle","SourceCountry":"United States","DestinationCountry":"United States","SourceLatitude":"37.4404","SourceLongitude":"-121.8705","DestinationLatitude":"47.6103","DestinationLongitude":"-122.3341"},{"Source":"24.6.173.220","Destination":"66.94.240.25","Protocol":"HTTP","TotalLength":775,"SourceCity":"Milpitas","DestinationCity":"Sunnyvale","SourceCountry":"United States","DestinationCountry":"United States","SourceLatitude":"37.4404","SourceLongitude":"-121.8705","DestinationLatitude":"37.4249","DestinationLongitude":"-122.0074"},{"Source":"216.52.121.177","Destination":"24.6.173.220","Protocol":"TCP","TotalLength":744,"SourceCity":"Atlanta","DestinationCity":"Milpitas","SourceCountry":"United States","DestinationCountry":"United States","SourceLatitude":"33.7516","SourceLongitude":"-84.3915","DestinationLatitude":"37.4404","DestinationLongitude":"-121.8705"},{"Source":"205.251.215.12","Destination":"24.6.173.220","Protocol":"HTTP","TotalLength":743,"SourceCity":"Seattle","DestinationCity":"Milpitas","SourceCountry":"United States","DestinationCountry":"United States","SourceLatitude":"47.6103","SourceLongitude":"-122.3341","DestinationLatitude":"37.4404","DestinationLongitude":"-121.8705"},{"Source":"24.6.173.220","Destination":"66.109.241.50","Protocol":"HTTP","TotalLength":742,"SourceCity":"Milpitas","DestinationCity":"","SourceCountry":"United States","DestinationCountry":"United States","SourceLatitude":"37.4404","SourceLongitude":"-121.8705","DestinationLatitude":"38.0000","DestinationLongitude":"-97.0000"},{"Source":"24.6.173.220","Destination":"98.137.88.34","Protocol":"TCP","TotalLength":738,"SourceCity":"Milpitas","DestinationCity":"Sunnyvale","SourceCountry":"United States","DestinationCountry":"United States","SourceLatitude":"37.4404","SourceLongitude":"-121.8705","DestinationLatitude":"37.4249","DestinationLongitude":"-122.0074"},{"Source":"50.16.204.178","Destination":"24.6.173.220","Protocol":"HTTP","TotalLength":736,"SourceCity":"Ashburn","DestinationCity":"Milpitas","SourceCountry":"United States","DestinationCountry":"United States","SourceLatitude":"39.0437","SourceLongitude":"-77.4875","DestinationLatitude":"37.4404","DestinationLongitude":"-121.8705"},{"Source":"64.94.107.38","Destination":"24.6.173.220","Protocol":"TCP","TotalLength":730,"SourceCity":"Atlanta","DestinationCity":"Milpitas","SourceCountry":"United States","DestinationCountry":"United States","SourceLatitude":"33.7516","SourceLongitude":"-84.3915","DestinationLatitude":"37.4404","DestinationLongitude":"-121.8705"},{"Source":"23.23.99.162","Destination":"24.6.173.220","Protocol":"HTTP","TotalLength":696,"SourceCity":"Ashburn","DestinationCity":"Milpitas","SourceCountry":"United States","DestinationCountry":"United States","SourceLatitude":"39.0437","SourceLongitude":"-77.4875","DestinationLatitude":"37.4404","DestinationLongitude":"-121.8705"},{"Source":"24.6.173.220","Destination":"63.251.249.49","Protocol":"HTTP","TotalLength":693,"SourceCity":"Milpitas","DestinationCity":"Atlanta","SourceCountry":"United States","DestinationCountry":"United States","SourceLatitude":"37.4404","SourceLongitude":"-121.8705","DestinationLatitude":"33.7516","DestinationLongitude":"-84.3915"},{"Source":"24.6.173.220","Destination":"50.17.229.22","Protocol":"TCP","TotalLength":684,"SourceCity":"Milpitas","DestinationCity":"Ashburn","SourceCountry":"United States","DestinationCountry":"United States","SourceLatitude":"37.4404","SourceLongitude":"-121.8705","DestinationLatitude":"39.0437","DestinationLongitude":"-77.4875"},{"Source":"24.6.173.220","Destination":"208.81.191.97","Protocol":"TCP","TotalLength":684,"SourceCity":"Milpitas","DestinationCity":"Mountain View","SourceCountry":"United States","DestinationCountry":"United States","SourceLatitude":"37.4404","SourceLongitude":"-121.8705","DestinationLatitude":"37.3885","DestinationLongitude":"-122.0741"},{"Source":"205.251.215.121","Destination":"24.6.173.220","Protocol":"HTTP","TotalLength":680,"SourceCity":"Seattle","DestinationCity":"Milpitas","SourceCountry":"United States","DestinationCountry":"United States","SourceLatitude":"47.6103","SourceLongitude":"-122.3341","DestinationLatitude":"37.4404","DestinationLongitude":"-121.8705"},{"Source":"64.210.61.179","Destination":"24.6.173.220","Protocol":"TCP","TotalLength":678,"SourceCity":"New York","DestinationCity":"Milpitas","SourceCountry":"United States","DestinationCountry":"United States","SourceLatitude":"40.7391","SourceLongitude":"-73.9826","DestinationLatitude":"37.4404","DestinationLongitude":"-121.8705"},{"Source":"50.17.229.22","Destination":"24.6.173.220","Protocol":"HTTP","TotalLength":674,"SourceCity":"Ashburn","DestinationCity":"Milpitas","SourceCountry":"United States","DestinationCountry":"United States","SourceLatitude":"39.0437","SourceLongitude":"-77.4875","DestinationLatitude":"37.4404","DestinationLongitude":"-121.8705"},{"Source":"24.6.173.220","Destination":"12.129.199.106","Protocol":"TCP","TotalLength":672,"SourceCity":"Milpitas","DestinationCity":"","SourceCountry":"United States","DestinationCountry":"United States","SourceLatitude":"37.4404","SourceLongitude":"-121.8705","DestinationLatitude":"38.0000","DestinationLongitude":"-97.0000"},{"Source":"50.18.86.99","Destination":"24.6.173.220","Protocol":"TCP","TotalLength":669,"SourceCity":"San Jose","DestinationCity":"Milpitas","SourceCountry":"United States","DestinationCountry":"United States","SourceLatitude":"37.3394","SourceLongitude":"-121.8950","DestinationLatitude":"37.4404","DestinationLongitude":"-121.8705"},{"Source":"67.217.65.244","Destination":"24.6.173.220","Protocol":"TCP","TotalLength":660,"SourceCity":"Goleta","DestinationCity":"Milpitas","SourceCountry":"United States","DestinationCountry":"United States","SourceLatitude":"34.5021","SourceLongitude":"-120.1287","DestinationLatitude":"37.4404","DestinationLongitude":"-121.8705"},{"Source":"74.201.85.10","Destination":"24.6.173.220","Protocol":"HTTP","TotalLength":639,"SourceCity":"Atlanta","DestinationCity":"Milpitas","SourceCountry":"United States","DestinationCountry":"United States","SourceLatitude":"33.7516","SourceLongitude":"-84.3915","DestinationLatitude":"37.4404","DestinationLongitude":"-121.8705"},{"Source":"24.6.173.220","Destination":"69.194.244.20","Protocol":"HTTP","TotalLength":631,"SourceCity":"Milpitas","DestinationCity":"Redwood City","SourceCountry":"United States","DestinationCountry":"United States","SourceLatitude":"37.4404","SourceLongitude":"-121.8705","DestinationLatitude":"37.4914","DestinationLongitude":"-122.2110"},{"Source":"23.23.99.162","Destination":"24.6.173.220","Protocol":"TCP","TotalLength":624,"SourceCity":"Ashburn","DestinationCity":"Milpitas","SourceCountry":"United States","DestinationCountry":"United States","SourceLatitude":"39.0437","SourceLongitude":"-77.4875","DestinationLatitude":"37.4404","DestinationLongitude":"-121.8705"},{"Source":"50.112.101.26","Destination":"24.6.173.220","Protocol":"TCP","TotalLength":624,"SourceCity":"Boardman","DestinationCity":"Milpitas","SourceCountry":"United States","DestinationCountry":"United States","SourceLatitude":"45.7788","SourceLongitude":"-119.5290","DestinationLatitude":"37.4404","DestinationLongitude":"-121.8705"},{"Source":"24.6.173.220","Destination":"208.81.191.108","Protocol":"TCP","TotalLength":618,"SourceCity":"Milpitas","DestinationCity":"Mountain View","SourceCountry":"United States","DestinationCountry":"United States","SourceLatitude":"37.4404","SourceLongitude":"-121.8705","DestinationLatitude":"37.3885","DestinationLongitude":"-122.0741"},{"Source":"184.72.31.86","Destination":"24.6.173.220","Protocol":"TCP","TotalLength":610,"SourceCity":"San Jose","DestinationCity":"Milpitas","SourceCountry":"United States","DestinationCountry":"United States","SourceLatitude":"37.3394","SourceLongitude":"-121.8950","DestinationLatitude":"37.4404","DestinationLongitude":"-121.8705"},{"Source":"64.74.80.187","Destination":"24.6.173.220","Protocol":"TCP","TotalLength":600,"SourceCity":"Atlanta","DestinationCity":"Milpitas","SourceCountry":"United States","DestinationCountry":"United States","SourceLatitude":"33.7516","SourceLongitude":"-84.3915","DestinationLatitude":"37.4404","DestinationLongitude":"-121.8705"},{"Source":"202.173.28.250","Destination":"24.6.173.220","Protocol":"TCP","TotalLength":600,"SourceCity":"Sydney","DestinationCity":"Milpitas","SourceCountry":"Australia","DestinationCountry":"United States","SourceLatitude":"-33.8615","SourceLongitude":"151.2055","DestinationLatitude":"37.4404","DestinationLongitude":"-121.8705"},{"Source":"208.71.123.129","Destination":"24.6.173.220","Protocol":"TCP","TotalLength":600,"SourceCity":"New York","DestinationCity":"Milpitas","SourceCountry":"United States","DestinationCountry":"United States","SourceLatitude":"40.7517","SourceLongitude":"-73.9972","DestinationLatitude":"37.4404","DestinationLongitude":"-121.8705"},{"Source":"216.115.212.254","Destination":"24.6.173.220","Protocol":"TCP","TotalLength":600,"SourceCity":"Goleta","DestinationCity":"Milpitas","SourceCountry":"United States","DestinationCountry":"United States","SourceLatitude":"34.5021","SourceLongitude":"-120.1287","DestinationLatitude":"37.4404","DestinationLongitude":"-121.8705"},{"Source":"184.73.220.117","Destination":"24.6.173.220","Protocol":"HTTP","TotalLength":590,"SourceCity":"Ashburn","DestinationCity":"Milpitas","SourceCountry":"United States","DestinationCountry":"United States","SourceLatitude":"39.0437","SourceLongitude":"-77.4875","DestinationLatitude":"37.4404","DestinationLongitude":"-121.8705"},{"Source":"69.194.244.20","Destination":"24.6.173.220","Protocol":"HTTP","TotalLength":577,"SourceCity":"Redwood City","DestinationCity":"Milpitas","SourceCountry":"United States","DestinationCountry":"United States","SourceLatitude":"37.4914","SourceLongitude":"-122.2110","DestinationLatitude":"37.4404","DestinationLongitude":"-121.8705"},{"Source":"24.6.173.220","Destination":"216.157.106.190","Protocol":"TCP","TotalLength":576,"SourceCity":"Milpitas","DestinationCity":"Atlanta","SourceCountry":"United States","DestinationCountry":"United States","SourceLatitude":"37.4404","SourceLongitude":"-121.8705","DestinationLatitude":"33.7516","DestinationLongitude":"-84.3915"},{"Source":"24.6.173.220","Destination":"50.18.191.55","Protocol":"TCP","TotalLength":576,"SourceCity":"Milpitas","DestinationCity":"San Jose","SourceCountry":"United States","DestinationCountry":"United States","SourceLatitude":"37.4404","SourceLongitude":"-121.8705","DestinationLatitude":"37.3394","DestinationLongitude":"-121.8950"},{"Source":"24.6.173.220","Destination":"216.155.207.26","Protocol":"TCP","TotalLength":564,"SourceCity":"Milpitas","DestinationCity":"Sunnyvale","SourceCountry":"United States","DestinationCountry":"United States","SourceLatitude":"37.4404","SourceLongitude":"-121.8705","DestinationLatitude":"37.4249","DestinationLongitude":"-122.0074"},{"Source":"24.6.173.220","Destination":"64.237.104.20","Protocol":"TCP","TotalLength":564,"SourceCity":"Milpitas","DestinationCity":"Falls Church","SourceCountry":"United States","DestinationCountry":"United States","SourceLatitude":"37.4404","SourceLongitude":"-121.8705","DestinationLatitude":"38.8640","DestinationLongitude":"-77.1922"},{"Source":"24.6.173.220","Destination":"50.23.124.152","Protocol":"TCP","TotalLength":564,"SourceCity":"Milpitas","DestinationCity":"San Jose","SourceCountry":"United States","DestinationCountry":"United States","SourceLatitude":"37.4404","SourceLongitude":"-121.8705","DestinationLatitude":"37.3394","DestinationLongitude":"-121.8950"},{"Source":"24.6.173.220","Destination":"69.16.175.10","Protocol":"TCP","TotalLength":564,"SourceCity":"Milpitas","DestinationCity":"Phoenix","SourceCountry":"United States","DestinationCountry":"United States","SourceLatitude":"37.4404","SourceLongitude":"-121.8705","DestinationLatitude":"33.5083","DestinationLongitude":"-112.0717"},{"Source":"24.6.173.220","Destination":"66.150.149.23","Protocol":"TCP","TotalLength":564,"SourceCity":"Milpitas","DestinationCity":"Atlanta","SourceCountry":"United States","DestinationCountry":"United States","SourceLatitude":"37.4404","SourceLongitude":"-121.8705","DestinationLatitude":"33.7516","DestinationLongitude":"-84.3915"},{"Source":"184.173.170.82","Destination":"24.6.173.220","Protocol":"HTTP","TotalLength":563,"SourceCity":"Houston","DestinationCity":"Milpitas","SourceCountry":"United States","DestinationCountry":"United States","SourceLatitude":"29.7523","SourceLongitude":"-95.3670","DestinationLatitude":"37.4404","DestinationLongitude":"-121.8705"},{"Source":"173.241.250.153","Destination":"24.6.173.220","Protocol":"HTTP","TotalLength":559,"SourceCity":"Pasadena","DestinationCity":"Milpitas","SourceCountry":"United States","DestinationCountry":"United States","SourceLatitude":"34.1484","SourceLongitude":"-118.1662","DestinationLatitude":"37.4404","DestinationLongitude":"-121.8705"},{"Source":"24.6.173.220","Destination":"173.241.250.153","Protocol":"HTTP","TotalLength":547,"SourceCity":"Milpitas","DestinationCity":"Pasadena","SourceCountry":"United States","DestinationCountry":"United States","SourceLatitude":"37.4404","SourceLongitude":"-121.8705","DestinationLatitude":"34.1484","DestinationLongitude":"-118.1662"},{"Source":"75.101.165.44","Destination":"24.6.173.220","Protocol":"HTTP","TotalLength":546,"SourceCity":"Ashburn","DestinationCity":"Milpitas","SourceCountry":"United States","DestinationCountry":"United States","SourceLatitude":"39.0437","SourceLongitude":"-77.4875","DestinationLatitude":"37.4404","DestinationLongitude":"-121.8705"},{"Source":"24.6.173.220","Destination":"50.16.204.178","Protocol":"HTTP","TotalLength":533,"SourceCity":"Milpitas","DestinationCity":"Ashburn","SourceCountry":"United States","DestinationCountry":"United States","SourceLatitude":"37.4404","SourceLongitude":"-121.8705","DestinationLatitude":"39.0437","DestinationLongitude":"-77.4875"},{"Source":"24.6.173.220","Destination":"63.215.202.48","Protocol":"TCP","TotalLength":522,"SourceCity":"Milpitas","DestinationCity":"Amsterdam","SourceCountry":"United States","DestinationCountry":"Netherlands","SourceLatitude":"37.4404","SourceLongitude":"-121.8705","DestinationLatitude":"52.3500","DestinationLongitude":"4.9167"},{"Source":"69.194.244.13","Destination":"24.6.173.220","Protocol":"HTTP","TotalLength":521,"SourceCity":"Redwood City","DestinationCity":"Milpitas","SourceCountry":"United States","DestinationCountry":"United States","SourceLatitude":"37.4914","SourceLongitude":"-122.2110","DestinationLatitude":"37.4404","DestinationLongitude":"-121.8705"},{"Source":"64.94.107.59","Destination":"24.6.173.220","Protocol":"HTTP","TotalLength":521,"SourceCity":"Atlanta","DestinationCity":"Milpitas","SourceCountry":"United States","DestinationCountry":"United States","SourceLatitude":"33.7516","SourceLongitude":"-84.3915","DestinationLatitude":"37.4404","DestinationLongitude":"-121.8705"},{"Source":"24.6.173.220","Destination":"64.94.107.59","Protocol":"HTTP","TotalLength":513,"SourceCity":"Milpitas","DestinationCity":"Atlanta","SourceCountry":"United States","DestinationCountry":"United States","SourceLatitude":"37.4404","SourceLongitude":"-121.8705","DestinationLatitude":"33.7516","DestinationLongitude":"-84.3915"},{"Source":"24.6.173.220","Destination":"204.144.141.26","Protocol":"HTTP","TotalLength":512,"SourceCity":"Milpitas","DestinationCity":"Boulder","SourceCountry":"United States","DestinationCountry":"United States","SourceLatitude":"37.4404","SourceLongitude":"-121.8705","DestinationLatitude":"40.0150","DestinationLongitude":"-105.2706"},{"Source":"24.6.173.220","Destination":"69.194.244.13","Protocol":"TCP","TotalLength":510,"SourceCity":"Milpitas","DestinationCity":"Redwood City","SourceCountry":"United States","DestinationCountry":"United States","SourceLatitude":"37.4404","SourceLongitude":"-121.8705","DestinationLatitude":"37.4914","DestinationLongitude":"-122.2110"},